[
  {
    "id": "f_498adb937684",
    "slug": "alco-iron-and-metal",
    "name": "ALCO Iron & Metal",
    "type": "recycling",
    "address": "1788 Rogers Avenue San Jose CA 95112",
    "lat": 37.3781431,
    "lng": -121.909775,
    "website": null,
    "osm_url": "https://www.openstreetmap.org/way/39132290",
    "appears_in": [
      {
        "state": "california",
        "city": "san-jose"
      }
    ]
  },
  {
    "id": "f_dd079c6de50a",
    "slug": "att-recycle",
    "name": "ATT Recycle",
    "type": "recycling",
    "address": "215 Leo Avenue San Jose CA 95112",
    "lat": 37.3111673,
    "lng": -121.8652793,
    "website": null,
    "osm_url": "https://www.openstreetmap.org/way/35677757",
    "appears_in": [
      {
        "state": "california",
        "city": "san-jose"
      }
    ]
  },
  {
    "id": "f_8a5376a8e9bc",
    "slug": "auction-bdi",
    "name": "Auction BDI",
    "type": "recycling",
    "address": "660 Vista Way Milpitas CA 95035",
    "lat": 37.4262856,
    "lng": -121.8881934,
    "website": "https://auctionbdi.hibid.com/",
    "osm_url": "https://www.openstreetmap.org/way/39041632",
    "appears_in": [
      {
        "state": "california",
        "city": "san-jose"
      }
    ]
  },
  {
    "id": "f_37f9966ea974",
    "slug": "berkeley-recycling-center",
    "name": "Berkeley Recycling Center",
    "type": "recycling",
    "address": "669 Gilman Street Berkeley CA 94710",
    "lat": 37.8788277,
    "lng": -122.3050969,
    "website": "https://berkeleyrecycling.org/",
    "osm_url": "https://www.openstreetmap.org/node/12839053406",
    "appears_in": [
      {
        "state": "california",
        "city": "oakland"
      },
      {
        "state": "california",
        "city": "san-francisco"
      }
    ]
  },
  {
    "id": "f_4ff162d50e44",
    "slug": "berkeley-transfer-station",
    "name": "Berkeley Transfer Station",
    "type": "transfer_station",
    "address": "1201 Second Street Berkeley CA 94710",
    "lat": 37.8799328,
    "lng": -122.3059418,
    "website": "https://berkeleyca.gov/city-services/trash-recycling/transfer-station",
    "osm_url": "https://www.openstreetmap.org/node/12839053407",
    "appears_in": [
      {
        "state": "california",
        "city": "oakland"
      },
      {
        "state": "california",
        "city": "san-francisco"
      }
    ]
  },
  {
    "id": "f_f4a224cdd4c1",
    "slug": "berkeley-transfer-station",
    "name": "Berkeley Transfer Station",
    "type": "transfer_station",
    "address": "1201 Berkeley CA",
    "lat": 37.8801066,
    "lng": -122.3057394,
    "website": null,
    "osm_url": "https://www.openstreetmap.org/way/44073281",
    "appears_in": [
      {
        "state": "california",
        "city": "oakland"
      },
      {
        "state": "california",
        "city": "san-francisco"
      }
    ]
  },
  {
    "id": "f_e76ce05562a8",
    "slug": "bradley-landfill-and-sun-valley-recycling-park",
    "name": "Bradley Landfill & Sun Valley Recycling Park",
    "type": "landfill",
    "address": "",
    "lat": 34.2392547,
    "lng": -118.3850687,
    "website": "https://www.wmsolutions.com/locations/details/id/1105",
    "osm_url": "https://www.openstreetmap.org/way/1074041260",
    "appears_in": [
      {
        "state": "california",
        "city": "los-angeles"
      }
    ]
  },
  {
    "id": "f_f37864c0dd58",
    "slug": "california-metals",
    "name": "California Metals",
    "type": "recycling",
    "address": "",
    "lat": 33.9489773,
    "lng": -118.178438,
    "website": null,
    "osm_url": "https://www.openstreetmap.org/node/4010235118",
    "appears_in": [
      {
        "state": "california",
        "city": "los-angeles"
      }
    ]
  },
  {
    "id": "f_d6d3e1694005",
    "slug": "california-waste-solutions",
    "name": "California Waste Solutions",
    "type": "recycling",
    "address": "1820 10th Street",
    "lat": 37.8116308,
    "lng": -122.3021672,
    "website": null,
    "osm_url": "https://www.openstreetmap.org/way/432716142",
    "appears_in": [
      {
        "state": "california",
        "city": "oakland"
      },
      {
        "state": "california",
        "city": "san-francisco"
      }
    ]
  },
  {
    "id": "f_4b395e029163",
    "slug": "california-waste-solutions",
    "name": "California Waste Solutions",
    "type": "recycling",
    "address": "1005 Timothy Drive San Jose CA 95133",
    "lat": 37.3652717,
    "lng": -121.8801647,
    "website": null,
    "osm_url": "https://www.openstreetmap.org/node/8925401072",
    "appears_in": [
      {
        "state": "california",
        "city": "san-jose"
      }
    ]
  },
  {
    "id": "f_defd25bf721e",
    "slug": "california-waste-solutions",
    "name": "California Waste Solutions",
    "type": "recycling",
    "address": "",
    "lat": 37.3652172,
    "lng": -121.8822389,
    "website": "https://calwaste.com/",
    "osm_url": "https://www.openstreetmap.org/way/521379111",
    "appears_in": [
      {
        "state": "california",
        "city": "san-jose"
      }
    ]
  },
  {
    "id": "f_696bac9c00e0",
    "slug": "calwa-recycling",
    "name": "Calwa Recycling",
    "type": "recycling",
    "address": "",
    "lat": 36.7148639,
    "lng": -119.7500329,
    "website": null,
    "osm_url": "https://www.openstreetmap.org/way/473097980",
    "appears_in": [
      {
        "state": "california",
        "city": "fresno"
      }
    ]
  },
  {
    "id": "f_d1a84bd609e4",
    "slug": "campanile-mall-recycling",
    "name": "Campanile Mall Recycling",
    "type": "recycling",
    "address": "",
    "lat": 32.7724678,
    "lng": -117.071715,
    "website": null,
    "osm_url": "https://www.openstreetmap.org/node/2131607153",
    "appears_in": [
      {
        "state": "california",
        "city": "san-diego"
      }
    ]
  },
  {
    "id": "f_61ecdd7e4371",
    "slug": "canco-recycling",
    "name": "Canco Recycling",
    "type": "recycling",
    "address": "",
    "lat": 33.8603832,
    "lng": -118.1594361,
    "website": null,
    "osm_url": "https://www.openstreetmap.org/way/441318937",
    "appears_in": [
      {
        "state": "california",
        "city": "los-angeles"
      }
    ]
  },
  {
    "id": "f_b851ae715761",
    "slug": "central-la-recycling-and-transfer-station",
    "name": "Central LA Recycling & Transfer Station",
    "type": "transfer_station",
    "address": "2201 East Washington Boulevard Los Angeles CA 90021",
    "lat": 34.0202968,
    "lng": -118.2344926,
    "website": null,
    "osm_url": "https://www.openstreetmap.org/way/48278597",
    "appears_in": [
      {
        "state": "california",
        "city": "los-angeles"
      }
    ]
  },
  {
    "id": "f_175892eb9693",
    "slug": "charity-thrift-store",
    "name": "Charity Thrift Store",
    "type": "recycling",
    "address": "2725 Lafayette Street Santa Clara CA 95050",
    "lat": 37.3708614,
    "lng": -121.9492773,
    "website": "http://www.charitycarsforkids.org/",
    "osm_url": "https://www.openstreetmap.org/node/8219032640",
    "appears_in": [
      {
        "state": "california",
        "city": "san-jose"
      }
    ]
  },
  {
    "id": "f_a5b930bd5026",
    "slug": "circosta-iron-and-metal",
    "name": "Circosta Iron & Metal",
    "type": "recycling",
    "address": "1801 Evans Avenue San Francisco 94124",
    "lat": 37.7446125,
    "lng": -122.393131,
    "website": "https://www.circostametals.com/",
    "osm_url": "https://www.openstreetmap.org/way/1168301354",
    "appears_in": [
      {
        "state": "california",
        "city": "san-francisco"
      }
    ]
  },
  {
    "id": "f_5d0fd3f12d2e",
    "slug": "city-of-berkeley-recycling",
    "name": "City of Berkeley Recycling",
    "type": "recycling",
    "address": "",
    "lat": 37.8791787,
    "lng": -122.3055861,
    "website": "https://berkeleyrecycling.org/",
    "osm_url": "https://www.openstreetmap.org/node/560189339",
    "appears_in": [
      {
        "state": "california",
        "city": "oakland"
      },
      {
        "state": "california",
        "city": "san-francisco"
      }
    ]
  },
  {
    "id": "f_333a08c12c73",
    "slug": "city-of-burbank-landfill-no-3",
    "name": "City of Burbank Landfill No. 3",
    "type": "landfill",
    "address": "",
    "lat": 34.2089623,
    "lng": -118.3122772,
    "website": null,
    "osm_url": "https://www.openstreetmap.org/way/199045527",
    "appears_in": [
      {
        "state": "california",
        "city": "los-angeles"
      }
    ]
  },
  {
    "id": "f_c85b64e44858",
    "slug": "danny-recycling-center",
    "name": "Danny Recycling Center",
    "type": "recycling",
    "address": "1745 Walsh Avenue Santa Clara CA 95050",
    "lat": 37.3701739,
    "lng": -121.9578765,
    "website": null,
    "osm_url": "https://www.openstreetmap.org/node/10900289620",
    "appears_in": [
      {
        "state": "california",
        "city": "san-jose"
      }
    ]
  },
  {
    "id": "f_024d9954b4f7",
    "slug": "de-la-cruz-recycling",
    "name": "De la Cruz Recycling",
    "type": "recycling",
    "address": "15025 Roscoe Boulevard North Hills CA 91402",
    "lat": 34.2220202,
    "lng": -118.4600473,
    "website": null,
    "osm_url": "https://www.openstreetmap.org/node/11637348505",
    "appears_in": [
      {
        "state": "california",
        "city": "los-angeles"
      }
    ]
  },
  {
    "id": "f_57192477ecab",
    "slug": "deniz-recycling",
    "name": "Deniz Recycling",
    "type": "recycling",
    "address": "10706 Vanowen Street North Hollywood Ca 91605",
    "lat": 34.1936032,
    "lng": -118.3641573,
    "website": null,
    "osm_url": "https://www.openstreetmap.org/way/1409639503",
    "appears_in": [
      {
        "state": "california",
        "city": "los-angeles"
      }
    ]
  },
  {
    "id": "f_753f23aeb8f7",
    "slug": "donation-box",
    "name": "Donation Box",
    "type": "recycling",
    "address": "",
    "lat": 37.882032,
    "lng": -122.2689191,
    "website": null,
    "osm_url": "https://www.openstreetmap.org/node/11323281933",
    "appears_in": [
      {
        "state": "california",
        "city": "oakland"
      }
    ]
  },
  {
    "id": "f_40b298978a13",
    "slug": "doolittle-landfill",
    "name": "Doolittle Landfill",
    "type": "landfill",
    "address": "",
    "lat": 37.7468727,
    "lng": -122.231259,
    "website": null,
    "osm_url": "https://www.openstreetmap.org/way/43985340",
    "appears_in": [
      {
        "state": "california",
        "city": "oakland"
      }
    ]
  },
  {
    "id": "f_6fa2a139a30c",
    "slug": "eco-drop-spot",
    "name": "Eco Drop Spot",
    "type": "recycling",
    "address": "",
    "lat": 37.3389745,
    "lng": -121.8843018,
    "website": null,
    "osm_url": "https://www.openstreetmap.org/node/12813500621",
    "appears_in": [
      {
        "state": "california",
        "city": "san-jose"
      }
    ]
  },
  {
    "id": "f_b53f592c6894",
    "slug": "ecoatm",
    "name": "ecoATM",
    "type": "recycling",
    "address": "",
    "lat": 35.341324,
    "lng": -119.05084,
    "website": null,
    "osm_url": "https://www.openstreetmap.org/node/13337804263",
    "appears_in": [
      {
        "state": "california",
        "city": "bakersfield"
      }
    ]
  },
  {
    "id": "f_1368831fb48a",
    "slug": "ecology-center-store",
    "name": "Ecology Center Store",
    "type": "recycling",
    "address": "2530 San Pablo Avenue",
    "lat": 37.8599506,
    "lng": -122.2894355,
    "website": "https://ecologycenter.org/store/",
    "osm_url": "https://www.openstreetmap.org/node/8235989482",
    "appears_in": [
      {
        "state": "california",
        "city": "oakland"
      },
      {
        "state": "california",
        "city": "san-francisco"
      }
    ]
  },
  {
    "id": "f_67f46a8d4f84",
    "slug": "edco-recycling",
    "name": "EDCO Recycling",
    "type": "recycling",
    "address": "",
    "lat": 33.8076548,
    "lng": -118.1820429,
    "website": null,
    "osm_url": "https://www.openstreetmap.org/way/418106125",
    "appears_in": [
      {
        "state": "california",
        "city": "los-angeles"
      }
    ]
  },
  {
    "id": "f_f8994f54f739",
    "slug": "edco-recycling-buyback-center",
    "name": "EDCO Recycling Buyback Center",
    "type": "recycling",
    "address": "6700 Federal Boulevard Lemon Grove CA 91945",
    "lat": 32.7372317,
    "lng": -117.0547671,
    "website": "https://lemon-grove.edcodisposal.com/public-facilities/edco-recycling-buyback-center-lemon-grove/",
    "osm_url": "https://www.openstreetmap.org/way/1369863831",
    "appears_in": [
      {
        "state": "california",
        "city": "san-diego"
      }
    ]
  },
  {
    "id": "f_6b12422f7b08",
    "slug": "el-cerrito-recycling-center",
    "name": "El Cerrito Recycling Center",
    "type": "recycling",
    "address": "",
    "lat": 37.9194287,
    "lng": -122.299252,
    "website": "http://www.el-cerrito.org/index.aspx?NID=336",
    "osm_url": "https://www.openstreetmap.org/node/1256306250",
    "appears_in": [
      {
        "state": "california",
        "city": "san-francisco"
      }
    ]
  },
  {
    "id": "f_854a09f1bea0",
    "slug": "ewastecollective",
    "name": "ewasteCollective",
    "type": "recycling",
    "address": "620 CA",
    "lat": 37.8753349,
    "lng": -122.3051084,
    "website": "https://ewastecollective.org/",
    "osm_url": "https://www.openstreetmap.org/node/6471289088",
    "appears_in": [
      {
        "state": "california",
        "city": "oakland"
      },
      {
        "state": "california",
        "city": "san-francisco"
      }
    ]
  },
  {
    "id": "f_28ef6388b36f",
    "slug": "flores-recycling-center",
    "name": "Flores Recycling Center",
    "type": "recycling",
    "address": "",
    "lat": 34.0803617,
    "lng": -118.2697786,
    "website": null,
    "osm_url": "https://www.openstreetmap.org/node/11390840166",
    "appears_in": [
      {
        "state": "california",
        "city": "los-angeles"
      }
    ]
  },
  {
    "id": "f_63b4fef10276",
    "slug": "free-mulch-pick-up",
    "name": "free mulch pick-up",
    "type": "recycling",
    "address": "",
    "lat": 33.8074844,
    "lng": -118.1765948,
    "website": null,
    "osm_url": "https://www.openstreetmap.org/node/6415540965",
    "appears_in": [
      {
        "state": "california",
        "city": "los-angeles"
      }
    ]
  },
  {
    "id": "f_5e1d65b0b1bd",
    "slug": "garden-city-sanitation-and-milpitas-sanitation",
    "name": "Garden City Sanitation & Milpitas Sanitation",
    "type": "recycling",
    "address": "1080 Walsh Avenue Santa Clara CA 95050",
    "lat": 37.3692491,
    "lng": -121.953789,
    "website": null,
    "osm_url": "https://www.openstreetmap.org/node/13035151861",
    "appears_in": [
      {
        "state": "california",
        "city": "san-jose"
      }
    ]
  },
  {
    "id": "f_248c1aa19b3c",
    "slug": "gift-card-recycling",
    "name": "Gift Card Recycling",
    "type": "recycling",
    "address": "",
    "lat": 37.3109543,
    "lng": -121.8487761,
    "website": null,
    "osm_url": "https://www.openstreetmap.org/node/3679715117",
    "appears_in": [
      {
        "state": "california",
        "city": "san-jose"
      }
    ]
  },
  {
    "id": "f_7103e82aa05f",
    "slug": "glendale-waste-collection-center",
    "name": "Glendale Waste Collection Center",
    "type": "transfer_station",
    "address": "",
    "lat": 34.1382923,
    "lng": -118.2726631,
    "website": null,
    "osm_url": "https://www.openstreetmap.org/way/736634391",
    "appears_in": [
      {
        "state": "california",
        "city": "los-angeles"
      }
    ]
  },
  {
    "id": "f_97591d37d39b",
    "slug": "goodwill",
    "name": "Goodwill",
    "type": "recycling",
    "address": "La Costa Avenue Encinitas",
    "lat": 33.0850663,
    "lng": -117.2976556,
    "website": null,
    "osm_url": "https://www.openstreetmap.org/node/2869782662",
    "appears_in": [
      {
        "state": "california",
        "city": "san-diego"
      }
    ]
  },
  {
    "id": "f_fb9fcad4d89a",
    "slug": "goodwill",
    "name": "Goodwill",
    "type": "recycling",
    "address": "",
    "lat": 37.39656,
    "lng": -121.996314,
    "website": null,
    "osm_url": "https://www.openstreetmap.org/way/391414069",
    "appears_in": [
      {
        "state": "california",
        "city": "san-jose"
      }
    ]
  },
  {
    "id": "f_464a76c54b32",
    "slug": "goodwill-donation-center",
    "name": "Goodwill Donation Center",
    "type": "recycling",
    "address": "",
    "lat": 34.0512766,
    "lng": -118.4183903,
    "website": null,
    "osm_url": "https://www.openstreetmap.org/way/391058661",
    "appears_in": [
      {
        "state": "california",
        "city": "los-angeles"
      }
    ]
  },
  {
    "id": "f_c55e30d711d0",
    "slug": "goodwill-donation-site",
    "name": "Goodwill Donation Site",
    "type": "recycling",
    "address": "",
    "lat": 34.0370084,
    "lng": -118.4358631,
    "website": null,
    "osm_url": "https://www.openstreetmap.org/node/8569870496",
    "appears_in": [
      {
        "state": "california",
        "city": "los-angeles"
      }
    ]
  },
  {
    "id": "f_06b5dabcea9b",
    "slug": "goodwill-donations",
    "name": "Goodwill Donations",
    "type": "recycling",
    "address": "",
    "lat": 32.8224165,
    "lng": -117.1024273,
    "website": null,
    "osm_url": "https://www.openstreetmap.org/node/6636240799",
    "appears_in": [
      {
        "state": "california",
        "city": "san-diego"
      }
    ]
  },
  {
    "id": "f_459ddfc350df",
    "slug": "goodwill-dropoff",
    "name": "Goodwill Dropoff",
    "type": "recycling",
    "address": "",
    "lat": 37.778151,
    "lng": -122.2296032,
    "website": null,
    "osm_url": "https://www.openstreetmap.org/node/5583696550",
    "appears_in": [
      {
        "state": "california",
        "city": "oakland"
      }
    ]
  },
  {
    "id": "f_a0f337ddbdd2",
    "slug": "graniterock-recycle-facility",
    "name": "Graniterock Recycle Facility",
    "type": "recycling",
    "address": "100 Granite Rock Way San Jose CA 95136",
    "lat": 37.2836675,
    "lng": -121.8428761,
    "website": null,
    "osm_url": "https://www.openstreetmap.org/way/883131242",
    "appears_in": [
      {
        "state": "california",
        "city": "san-jose"
      }
    ]
  },
  {
    "id": "f_f6bc390841fd",
    "slug": "green-team-materials-recovery-facility",
    "name": "Green Team Materials Recovery Facility",
    "type": "recycling",
    "address": "575 Charles Street San Jose CA 95112",
    "lat": 37.3661384,
    "lng": -121.8960656,
    "website": null,
    "osm_url": "https://www.openstreetmap.org/way/44709737",
    "appears_in": [
      {
        "state": "california",
        "city": "san-jose"
      }
    ]
  },
  {
    "id": "f_8a0abefb0b52",
    "slug": "greenfield-recycling-center",
    "name": "Greenfield Recycling Center",
    "type": "recycling",
    "address": "1235 Greenfield Drive El Cajon CA 92021",
    "lat": 32.8128769,
    "lng": -116.9386298,
    "website": "https://www.greenfieldrecycling.net/",
    "osm_url": "https://www.openstreetmap.org/way/957710393",
    "appears_in": [
      {
        "state": "california",
        "city": "san-diego"
      }
    ]
  },
  {
    "id": "f_220f4facc931",
    "slug": "greenwaste",
    "name": "GreenWaste",
    "type": "recycling",
    "address": "625 Charles Street San Jose CA 95112",
    "lat": 37.3673716,
    "lng": -121.8955495,
    "website": null,
    "osm_url": "https://www.openstreetmap.org/node/8212381616",
    "appears_in": [
      {
        "state": "california",
        "city": "san-jose"
      }
    ]
  },
  {
    "id": "f_2890b764fa08",
    "slug": "greenwaste-carpet-recycling",
    "name": "GreenWaste Carpet Recycling",
    "type": "recycling",
    "address": "1201 North 15th Street San Jose CA 95112",
    "lat": 37.3652374,
    "lng": -121.8938636,
    "website": null,
    "osm_url": "https://www.openstreetmap.org/way/44709819",
    "appears_in": [
      {
        "state": "california",
        "city": "san-jose"
      }
    ]
  },
  {
    "id": "f_a67120065681",
    "slug": "greenwaste-of-palo-alto",
    "name": "GreenWaste of Palo Alto",
    "type": "recycling",
    "address": "2765 Lafayette Street Santa Clara CA 95050",
    "lat": 37.3713304,
    "lng": -121.9488739,
    "website": null,
    "osm_url": "https://www.openstreetmap.org/way/209087379",
    "appears_in": [
      {
        "state": "california",
        "city": "san-jose"
      }
    ]
  },
  {
    "id": "f_8198b58afaea",
    "slug": "greenwaste-recovery",
    "name": "GreenWaste Recovery",
    "type": "recycling",
    "address": "610 East Gish Road San Jose CA 95112",
    "lat": 37.3682185,
    "lng": -121.8973374,
    "website": null,
    "osm_url": "https://www.openstreetmap.org/way/44367381",
    "appears_in": [
      {
        "state": "california",
        "city": "san-jose"
      }
    ]
  },
  {
    "id": "f_b03c78785211",
    "slug": "guadalupe-landfill",
    "name": "Guadalupe Landfill",
    "type": "landfill",
    "address": "15999 Guadalupe Mines Road San Jose CA 95120",
    "lat": 37.2125621,
    "lng": -121.9011661,
    "website": "https://wmcabay.wm.com/landfills/guadalupe.htm",
    "osm_url": "https://www.openstreetmap.org/way/124332898",
    "appears_in": [
      {
        "state": "california",
        "city": "san-jose"
      }
    ]
  },
  {
    "id": "f_8cccab9dac16",
    "slug": "guadalupe-recycling-facility",
    "name": "Guadalupe Recycling Facility",
    "type": "recycling",
    "address": "15999 Guadalupe Mines Road San Jose CA 95120",
    "lat": 37.2130634,
    "lng": -121.9013352,
    "website": null,
    "osm_url": "https://www.openstreetmap.org/node/8208994589",
    "appears_in": [
      {
        "state": "california",
        "city": "san-jose"
      }
    ]
  },
  {
    "id": "f_dfff7b0974a8",
    "slug": "hillside-landfill",
    "name": "Hillside Landfill",
    "type": "landfill",
    "address": "1 Sand Hill Road Colma 94014",
    "lat": 37.6828514,
    "lng": -122.4426565,
    "website": null,
    "osm_url": "https://www.openstreetmap.org/way/136160103",
    "appears_in": [
      {
        "state": "california",
        "city": "san-francisco"
      }
    ]
  },
  {
    "id": "f_ba5fe72c02a0",
    "slug": "household-hazardous-waste-facility",
    "name": "Household Hazardous Waste Facility",
    "type": "recycling",
    "address": "",
    "lat": 37.3593553,
    "lng": -121.8679698,
    "website": "https://hhw.sccgov.org/",
    "osm_url": "https://www.openstreetmap.org/way/1077825484",
    "appears_in": [
      {
        "state": "california",
        "city": "san-jose"
      }
    ]
  },
  {
    "id": "f_bcdbf07a4346",
    "slug": "household-hazardous-waste-transfer-facility",
    "name": "Household Hazardous Waste Transfer Facility",
    "type": "transfer_station",
    "address": "5161 Convoy Street San Diego CA 92111",
    "lat": 32.8392977,
    "lng": -117.1507257,
    "website": "https://www.sandiego.gov/environmental-services/miramar/hhwtransfac",
    "osm_url": "https://www.openstreetmap.org/way/128819056",
    "appears_in": [
      {
        "state": "california",
        "city": "san-diego"
      }
    ]
  },
  {
    "id": "f_d9e9793b1696",
    "slug": "jado-recycling",
    "name": "Jado Recycling",
    "type": "recycling",
    "address": "South Shore Center Way Alameda CA 94501",
    "lat": 37.7592175,
    "lng": -122.2545999,
    "website": "+18558578020",
    "osm_url": "https://www.openstreetmap.org/node/12332038711",
    "appears_in": [
      {
        "state": "california",
        "city": "oakland"
      }
    ]
  },
  {
    "id": "f_1389ddee8441",
    "slug": "kirby-canyon-sanitary-landfill",
    "name": "Kirby Canyon Sanitary Landfill",
    "type": "landfill",
    "address": "",
    "lat": 37.1846848,
    "lng": -121.6727172,
    "website": null,
    "osm_url": "https://www.openstreetmap.org/way/109610207",
    "appears_in": [
      {
        "state": "california",
        "city": "san-jose"
      }
    ]
  },
  {
    "id": "f_7c2964f42f8a",
    "slug": "los-angeles-county-s-a-f-e-center",
    "name": "Los Angeles County S.A.F.E Center",
    "type": "recycling",
    "address": "",
    "lat": 34.2375941,
    "lng": -118.3714433,
    "website": "http://www.lastormwater.org/take-action/practice-good-housekeeping/disposal-of-household-hazardous-waste/",
    "osm_url": "https://www.openstreetmap.org/way/62551420",
    "appears_in": [
      {
        "state": "california",
        "city": "los-angeles"
      }
    ]
  },
  {
    "id": "f_11123ccf58cc",
    "slug": "maple-canyon-landfill",
    "name": "Maple Canyon Landfill",
    "type": "landfill",
    "address": "",
    "lat": 34.283503,
    "lng": -118.18512,
    "website": null,
    "osm_url": "https://www.openstreetmap.org/way/31009621",
    "appears_in": [
      {
        "state": "california",
        "city": "los-angeles"
      }
    ]
  },
  {
    "id": "f_124c46c2ae39",
    "slug": "miguel-mendoza-recycling-center",
    "name": "Miguel Mendoza Recycling Center",
    "type": "recycling",
    "address": "",
    "lat": 34.2280204,
    "lng": -118.4684809,
    "website": null,
    "osm_url": "https://www.openstreetmap.org/node/10976093091",
    "appears_in": [
      {
        "state": "california",
        "city": "los-angeles"
      }
    ]
  },
  {
    "id": "f_b7dd1d3def98",
    "slug": "miramar-landfill",
    "name": "Miramar Landfill",
    "type": "landfill",
    "address": "",
    "lat": 32.8546061,
    "lng": -117.1553915,
    "website": null,
    "osm_url": "https://www.openstreetmap.org/relation/14514161",
    "appears_in": [
      {
        "state": "california",
        "city": "san-diego"
      }
    ]
  },
  {
    "id": "f_579625fc2a3c",
    "slug": "miramar-recycling-center",
    "name": "Miramar Recycling Center",
    "type": "recycling",
    "address": "5165 Convoy Street San Diego CA 92111",
    "lat": 32.8399894,
    "lng": -117.1504429,
    "website": "https://www.sandiego.gov/environmental-services/recycling/centers/miramarrecycle",
    "osm_url": "https://www.openstreetmap.org/way/128818002",
    "appears_in": [
      {
        "state": "california",
        "city": "san-diego"
      }
    ]
  },
  {
    "id": "f_a9ace00630ea",
    "slug": "newby-island-landfill",
    "name": "Newby Island Landfill",
    "type": "landfill",
    "address": "128 Dixon Landing Road San Jose 95134",
    "lat": 37.4599815,
    "lng": -121.9428783,
    "website": null,
    "osm_url": "https://www.openstreetmap.org/relation/13014099",
    "appears_in": [
      {
        "state": "california",
        "city": "san-jose"
      }
    ]
  },
  {
    "id": "f_853de71119cf",
    "slug": "nicole-bernsone-safe-center",
    "name": "Nicole Bernsone SAFE Center",
    "type": "transfer_station",
    "address": "10241 Balboa Boulevard Northridge CA 91325",
    "lat": 34.2568956,
    "lng": -118.5027189,
    "website": null,
    "osm_url": "https://www.openstreetmap.org/way/1152879487",
    "appears_in": [
      {
        "state": "california",
        "city": "los-angeles"
      }
    ]
  },
  {
    "id": "f_7a4d2e253fed",
    "slug": "palos-verdes-landfill",
    "name": "Palos Verdes Landfill",
    "type": "landfill",
    "address": "",
    "lat": 33.7886843,
    "lng": -118.3483211,
    "website": null,
    "osm_url": "https://www.openstreetmap.org/way/195841959",
    "appears_in": [
      {
        "state": "california",
        "city": "los-angeles"
      }
    ]
  },
  {
    "id": "f_8b116a808c06",
    "slug": "parcel-e-2",
    "name": "Parcel E-2",
    "type": "landfill",
    "address": "",
    "lat": 37.7241276,
    "lng": -122.3774997,
    "website": "https://www.bracpmo.navy.mil/BRAC-Bases/California/Former-Naval-Shipyard-Hunters-Point/",
    "osm_url": "https://www.openstreetmap.org/way/1218977080",
    "appears_in": [
      {
        "state": "california",
        "city": "san-francisco"
      }
    ]
  },
  {
    "id": "f_d36cb725d031",
    "slug": "pomeroy-canyon-landfill",
    "name": "Pomeroy Canyon Landfill",
    "type": "landfill",
    "address": "",
    "lat": 34.1869898,
    "lng": -118.2714759,
    "website": null,
    "osm_url": "https://www.openstreetmap.org/way/31721502",
    "appears_in": [
      {
        "state": "california",
        "city": "los-angeles"
      }
    ]
  },
  {
    "id": "f_5c0d829076c6",
    "slug": "ponce-recycling",
    "name": "Ponce Recycling",
    "type": "recycling",
    "address": "World Trade Drive San Diego CA 92128",
    "lat": 32.980538,
    "lng": -117.0754208,
    "website": null,
    "osm_url": "https://www.openstreetmap.org/node/9944351001",
    "appears_in": [
      {
        "state": "california",
        "city": "san-diego"
      }
    ]
  },
  {
    "id": "f_d752236c3d8b",
    "slug": "premier-recycle",
    "name": "Premier Recycle",
    "type": "recycling",
    "address": "260 Leo Avenue San Jose CA 95112",
    "lat": 37.3107967,
    "lng": -121.8641142,
    "website": null,
    "osm_url": "https://www.openstreetmap.org/way/227011096",
    "appears_in": [
      {
        "state": "california",
        "city": "san-jose"
      }
    ]
  },
  {
    "id": "f_c963cd66148d",
    "slug": "premier-recycle-company",
    "name": "Premier Recycle Company",
    "type": "recycling",
    "address": "1801 Smith Avenue San Jose CA 95112",
    "lat": 37.3124279,
    "lng": -121.8624127,
    "website": null,
    "osm_url": "https://www.openstreetmap.org/node/8362613682",
    "appears_in": [
      {
        "state": "california",
        "city": "san-jose"
      }
    ]
  },
  {
    "id": "f_4f297c716c31",
    "slug": "premier-recycle-company",
    "name": "Premier Recycle Company",
    "type": "recycling",
    "address": "348 Phelan Avenue San Jose CA 95112",
    "lat": 37.3141956,
    "lng": -121.8637799,
    "website": null,
    "osm_url": "https://www.openstreetmap.org/way/884294958",
    "appears_in": [
      {
        "state": "california",
        "city": "san-jose"
      }
    ]
  },
  {
    "id": "f_73e36b57d451",
    "slug": "prism-electronics-asset-recovery",
    "name": "Prism Electronics Asset Recovery",
    "type": "recycling",
    "address": "18305 Sutter Boulevard Morgan Hill CA 95037",
    "lat": 37.1445121,
    "lng": -121.6559452,
    "website": null,
    "osm_url": "https://www.openstreetmap.org/way/27591118",
    "appears_in": [
      {
        "state": "california",
        "city": "san-jose"
      }
    ]
  },
  {
    "id": "f_e622571ec626",
    "slug": "quality-recycling",
    "name": "Quality Recycling",
    "type": "recycling",
    "address": "13863 Poway Road Poway CA 92064",
    "lat": 32.9559936,
    "lng": -117.0306792,
    "website": null,
    "osm_url": "https://www.openstreetmap.org/way/544423772",
    "appears_in": [
      {
        "state": "california",
        "city": "san-diego"
      }
    ]
  },
  {
    "id": "f_ff7f92e7095e",
    "slug": "quality-recycling",
    "name": "Quality Recycling",
    "type": "recycling",
    "address": "10027 Vine Street Lakeside CA 92040",
    "lat": 32.8609774,
    "lng": -116.9207053,
    "website": "https://www.qualityrecycling.net/",
    "osm_url": "https://www.openstreetmap.org/way/961157266",
    "appears_in": [
      {
        "state": "california",
        "city": "san-diego"
      }
    ]
  },
  {
    "id": "f_0e3956d3a464",
    "slug": "ranch-town-recycling-center",
    "name": "Ranch Town Recycling Center",
    "type": "recycling",
    "address": "775 Lincoln Avenue San Jose CA 95126",
    "lat": 37.3155399,
    "lng": -121.9069841,
    "website": "https://www.ranchtownrecycling.com/",
    "osm_url": "https://www.openstreetmap.org/way/338085288",
    "appears_in": [
      {
        "state": "california",
        "city": "san-jose"
      }
    ]
  },
  {
    "id": "f_835a4cd568bc",
    "slug": "recology-recycle-center",
    "name": "Recology Recycle Center",
    "type": "recycling",
    "address": "1000 Amador Street San Francisco 94124",
    "lat": 37.7403009,
    "lng": -122.369822,
    "website": "https://www.recology.com/recology-san-francisco/recycle-centralpier-96/",
    "osm_url": "https://www.openstreetmap.org/way/264255889",
    "appears_in": [
      {
        "state": "california",
        "city": "san-francisco"
      }
    ]
  },
  {
    "id": "f_39715b1d76ca",
    "slug": "recycling-center",
    "name": "Recycling Center",
    "type": "recycling",
    "address": "",
    "lat": 37.7258946,
    "lng": -122.4471978,
    "website": null,
    "osm_url": "https://www.openstreetmap.org/way/68849269",
    "appears_in": [
      {
        "state": "california",
        "city": "san-francisco"
      }
    ]
  },
  {
    "id": "f_3704696479f3",
    "slug": "remington-grove-apartment-recycle-and-garbage",
    "name": "Remington Grove Apartment Recycle & Garbage",
    "type": "recycling",
    "address": "",
    "lat": 37.3593605,
    "lng": -122.0275353,
    "website": null,
    "osm_url": "https://www.openstreetmap.org/node/488669043",
    "appears_in": [
      {
        "state": "california",
        "city": "san-jose"
      }
    ]
  },
  {
    "id": "f_5f633ffd20c5",
    "slug": "remington-grove-apartment-recycle-and-garbage",
    "name": "Remington Grove Apartment Recycle & Garbage",
    "type": "recycling",
    "address": "",
    "lat": 37.3609296,
    "lng": -122.0278357,
    "website": null,
    "osm_url": "https://www.openstreetmap.org/node/488672657",
    "appears_in": [
      {
        "state": "california",
        "city": "san-jose"
      }
    ]
  },
  {
    "id": "f_e008141cf8eb",
    "slug": "remington-grove-apartment-recycle-and-garbage",
    "name": "Remington Grove Apartment Recycle & Garbage",
    "type": "recycling",
    "address": "",
    "lat": 37.3602952,
    "lng": -122.0280932,
    "website": null,
    "osm_url": "https://www.openstreetmap.org/node/488679507",
    "appears_in": [
      {
        "state": "california",
        "city": "san-jose"
      }
    ]
  },
  {
    "id": "f_adf377ff7712",
    "slug": "replanet",
    "name": "RePlanet",
    "type": "recycling",
    "address": "",
    "lat": 34.1872277,
    "lng": -118.6270012,
    "website": null,
    "osm_url": "https://www.openstreetmap.org/node/1532946649",
    "appears_in": [
      {
        "state": "california",
        "city": "los-angeles"
      }
    ]
  },
  {
    "id": "f_3d79b5faf531",
    "slug": "republic-services",
    "name": "Republic Services",
    "type": "transfer_station",
    "address": "",
    "lat": 32.8358293,
    "lng": -117.1450523,
    "website": "https://www.republicservices.com/",
    "osm_url": "https://www.openstreetmap.org/way/1305283848",
    "appears_in": [
      {
        "state": "california",
        "city": "san-diego"
      }
    ]
  },
  {
    "id": "f_15bbb992edb8",
    "slug": "reuben-fleet-landfill",
    "name": "Reuben Fleet Landfill",
    "type": "landfill",
    "address": "",
    "lat": 32.8214303,
    "lng": -116.9852238,
    "website": null,
    "osm_url": "https://www.openstreetmap.org/way/538368988",
    "appears_in": [
      {
        "state": "california",
        "city": "san-diego"
      }
    ]
  },
  {
    "id": "f_def2f996427c",
    "slug": "sa-recycling",
    "name": "SA Recycling",
    "type": "recycling",
    "address": "",
    "lat": 34.0110034,
    "lng": -118.2421367,
    "website": null,
    "osm_url": "https://www.openstreetmap.org/way/351913959",
    "appears_in": [
      {
        "state": "california",
        "city": "los-angeles"
      }
    ]
  },
  {
    "id": "f_1863a5732ec2",
    "slug": "sa-recycling",
    "name": "SA Recycling",
    "type": "recycling",
    "address": "",
    "lat": 33.7593212,
    "lng": -118.2525802,
    "website": null,
    "osm_url": "https://www.openstreetmap.org/relation/14285490",
    "appears_in": [
      {
        "state": "california",
        "city": "los-angeles"
      }
    ]
  },
  {
    "id": "f_0a6289547191",
    "slug": "safety-kleen-systems",
    "name": "Safety Kleen Systems",
    "type": "recycling",
    "address": "1147 North 10th Street San Jose CA 95112",
    "lat": 37.3630047,
    "lng": -121.8982226,
    "website": null,
    "osm_url": "https://www.openstreetmap.org/way/39019245",
    "appears_in": [
      {
        "state": "california",
        "city": "san-jose"
      }
    ]
  },
  {
    "id": "f_81fa2ffceca0",
    "slug": "san-diego-crv-center",
    "name": "San Diego CRV Center",
    "type": "recycling",
    "address": "855 32nd Street San Diego 92102",
    "lat": 32.714454,
    "lng": -117.124829,
    "website": "https://www.sandiegorecyclingleaders.com/",
    "osm_url": "https://www.openstreetmap.org/node/597165916",
    "appears_in": [
      {
        "state": "california",
        "city": "san-diego"
      }
    ]
  },
  {
    "id": "f_92cf0bf7936c",
    "slug": "san-francisco-dump",
    "name": "San Francisco Dump",
    "type": "recycling",
    "address": "",
    "lat": 37.7080093,
    "lng": -122.399613,
    "website": null,
    "osm_url": "https://www.openstreetmap.org/node/361100877",
    "appears_in": [
      {
        "state": "california",
        "city": "san-francisco"
      }
    ]
  },
  {
    "id": "f_ff040e0f01ad",
    "slug": "san-jose-metals",
    "name": "San Jose Metals",
    "type": "recycling",
    "address": "1032 North 10th Street San Jose CA 95112",
    "lat": 37.3610193,
    "lng": -121.8958102,
    "website": null,
    "osm_url": "https://www.openstreetmap.org/way/756091937",
    "appears_in": [
      {
        "state": "california",
        "city": "san-jose"
      }
    ]
  },
  {
    "id": "f_17b5f18b3cff",
    "slug": "san-marcos-landfill-closed",
    "name": "San Marcos Landfill (Closed)",
    "type": "landfill",
    "address": "",
    "lat": 33.0898849,
    "lng": -117.1979477,
    "website": null,
    "osm_url": "https://www.openstreetmap.org/way/401746646",
    "appears_in": [
      {
        "state": "california",
        "city": "san-diego"
      }
    ]
  },
  {
    "id": "f_6c3e1b0287d5",
    "slug": "sanco-resource-recovery",
    "name": "SANCO Resource Recovery",
    "type": "recycling",
    "address": "6750 Federal Boulevard Lemon Grove CA 91945",
    "lat": 32.7385267,
    "lng": -117.0535557,
    "website": "https://lemon-grove.edcodisposal.com/public-facilities/sanco-resource-recovery-lemon-grove/",
    "osm_url": "https://www.openstreetmap.org/way/1369817634",
    "appears_in": [
      {
        "state": "california",
        "city": "san-diego"
      }
    ]
  },
  {
    "id": "f_aada372038a5",
    "slug": "schnitzer-san-jose",
    "name": "Schnitzer San Jose",
    "type": "recycling",
    "address": "11665 Berryessa Road San Jose CA 95133",
    "lat": 37.3686796,
    "lng": -121.8852213,
    "website": "https://www.schnitzersteel.com/company_locations.aspx?View=Detail&ID=144",
    "osm_url": "https://www.openstreetmap.org/way/664008167",
    "appears_in": [
      {
        "state": "california",
        "city": "san-jose"
      }
    ]
  },
  {
    "id": "f_39b3b6d4b2ba",
    "slug": "scholl-canyon-landfill",
    "name": "Scholl Canyon Landfill",
    "type": "landfill",
    "address": "",
    "lat": 34.1582237,
    "lng": -118.194043,
    "website": null,
    "osm_url": "https://www.openstreetmap.org/way/39515897",
    "appears_in": [
      {
        "state": "california",
        "city": "los-angeles"
      }
    ]
  },
  {
    "id": "f_74c5239574f1",
    "slug": "scq-azevedo-plant-6",
    "name": "SCQ Azevedo Plant 6",
    "type": "recycling",
    "address": "",
    "lat": 37.2855589,
    "lng": -121.8474162,
    "website": null,
    "osm_url": "https://www.openstreetmap.org/way/198658439",
    "appears_in": [
      {
        "state": "california",
        "city": "san-jose"
      }
    ]
  },
  {
    "id": "f_079afcbdac50",
    "slug": "sdsu-recycling",
    "name": "SDSU Recycling",
    "type": "recycling",
    "address": "5299 Campanile Mall San Diego",
    "lat": 32.7723134,
    "lng": -117.071728,
    "website": null,
    "osm_url": "https://www.openstreetmap.org/node/2131638589",
    "appears_in": [
      {
        "state": "california",
        "city": "san-diego"
      }
    ]
  },
  {
    "id": "f_a45a5d0e3b2c",
    "slug": "sims-metal-management-recycling-center",
    "name": "Sims Metal Management Recycling Center",
    "type": "recycling",
    "address": "",
    "lat": 37.3092052,
    "lng": -121.8658799,
    "website": "https://www.simsmm.com/locations/san-jose-california/",
    "osm_url": "https://www.openstreetmap.org/way/1153091610",
    "appears_in": [
      {
        "state": "california",
        "city": "san-jose"
      }
    ]
  },
  {
    "id": "f_d72f34cdac5a",
    "slug": "smart-demolition-and-excavation-recycling-center",
    "name": "Smart Demolition & Excavation Recycling Center",
    "type": "recycling",
    "address": "231 Loomis Street San Francisco 94124",
    "lat": 37.7392529,
    "lng": -122.4052215,
    "website": null,
    "osm_url": "https://www.openstreetmap.org/way/259001379",
    "appears_in": [
      {
        "state": "california",
        "city": "san-francisco"
      }
    ]
  },
  {
    "id": "f_30f56504b778",
    "slug": "south-gate-transfer-station",
    "name": "South Gate Transfer Station",
    "type": "transfer_station",
    "address": "",
    "lat": 33.9426856,
    "lng": -118.1668389,
    "website": null,
    "osm_url": "https://www.openstreetmap.org/way/872765445",
    "appears_in": [
      {
        "state": "california",
        "city": "los-angeles"
      }
    ]
  },
  {
    "id": "f_f3bf85e0adea",
    "slug": "southwest-marine-disposal-site",
    "name": "Southwest Marine Disposal Site",
    "type": "landfill",
    "address": "",
    "lat": 33.729855,
    "lng": -118.2697591,
    "website": null,
    "osm_url": "https://www.openstreetmap.org/way/1172426496",
    "appears_in": [
      {
        "state": "california",
        "city": "los-angeles"
      }
    ]
  },
  {
    "id": "f_a86e5bad1008",
    "slug": "spring-valley-recycling",
    "name": "Spring Valley Recycling",
    "type": "recycling",
    "address": "1069 Elkelton Boulevard Spring Valley CA 91977",
    "lat": 32.7142959,
    "lng": -117.0169997,
    "website": "https://www.recyclingcenters.org/",
    "osm_url": "https://www.openstreetmap.org/way/1020142447",
    "appears_in": [
      {
        "state": "california",
        "city": "san-diego"
      }
    ]
  },
  {
    "id": "f_608dd50a5bff",
    "slug": "srdc-recycling",
    "name": "SRDC Recycling",
    "type": "recycling",
    "address": "11740 Berryessa Road San Jose CA 95133",
    "lat": 37.3664793,
    "lng": -121.8794012,
    "website": null,
    "osm_url": "https://www.openstreetmap.org/way/338602692",
    "appears_in": [
      {
        "state": "california",
        "city": "san-jose"
      }
    ]
  },
  {
    "id": "f_772fc48ce90a",
    "slug": "standard-iron-and-metals",
    "name": "Standard Iron & Metals",
    "type": "recycling",
    "address": "",
    "lat": 37.768619,
    "lng": -122.2156518,
    "website": null,
    "osm_url": "https://www.openstreetmap.org/way/412545930",
    "appears_in": [
      {
        "state": "california",
        "city": "oakland"
      }
    ]
  },
  {
    "id": "f_7918f61ea23d",
    "slug": "story-road-recycling",
    "name": "Story Road Recycling",
    "type": "recycling",
    "address": "1303 Story Road San Jose 95122",
    "lat": 37.3347689,
    "lng": -121.8514026,
    "website": null,
    "osm_url": "https://www.openstreetmap.org/way/118247375",
    "appears_in": [
      {
        "state": "california",
        "city": "san-jose"
      }
    ]
  },
  {
    "id": "f_fbf8a5fc2628",
    "slug": "suburban-miners-technologies",
    "name": "Suburban Miners Technologies",
    "type": "recycling",
    "address": "1801 Smith Avenue San Jose CA 95112",
    "lat": 37.3126225,
    "lng": -121.8621185,
    "website": "https://www.sm-techs.com/",
    "osm_url": "https://www.openstreetmap.org/node/8362613681",
    "appears_in": [
      {
        "state": "california",
        "city": "san-jose"
      }
    ]
  },
  {
    "id": "f_d089c19e06f9",
    "slug": "sun-valley-landfill",
    "name": "Sun Valley Landfill",
    "type": "landfill",
    "address": "",
    "lat": 34.2445314,
    "lng": -118.3767656,
    "website": "https://www.vulcanmaterials.com/construction-materials/facilities/sun-valley-landfill",
    "osm_url": "https://www.openstreetmap.org/way/731254098",
    "appears_in": [
      {
        "state": "california",
        "city": "los-angeles"
      }
    ]
  },
  {
    "id": "f_117849bafb98",
    "slug": "sunnyvale-materials-recovery-and-transfer-station",
    "name": "Sunnyvale Materials Recovery and Transfer Station",
    "type": "recycling",
    "address": "301 Carl Road Sunnyvale",
    "lat": 37.4181514,
    "lng": -122.0115307,
    "website": "https://sunnyvale.ca.gov/Departments/EnvironmentalServices/GarbageRecyclingandWasteReduction/SMaRTStation.aspx",
    "osm_url": "https://www.openstreetmap.org/way/28617622",
    "appears_in": [
      {
        "state": "california",
        "city": "san-jose"
      }
    ]
  },
  {
    "id": "f_f0ccc7ed2dc6",
    "slug": "sunshine-canyon-landfill",
    "name": "Sunshine Canyon Landfill",
    "type": "landfill",
    "address": "",
    "lat": 34.3275582,
    "lng": -118.5150104,
    "website": null,
    "osm_url": "https://www.openstreetmap.org/way/220684352",
    "appears_in": [
      {
        "state": "california",
        "city": "los-angeles"
      }
    ]
  },
  {
    "id": "f_862f0f57ebf3",
    "slug": "sycamore-landfill",
    "name": "Sycamore Landfill",
    "type": "landfill",
    "address": "8514 Mast Boulevard Santee CA 92071",
    "lat": 32.8599783,
    "lng": -117.0283918,
    "website": "https://www.sandiego.gov/department/environmental-services/sycamore-landfill",
    "osm_url": "https://www.openstreetmap.org/way/212614733",
    "appears_in": [
      {
        "state": "california",
        "city": "san-diego"
      }
    ]
  },
  {
    "id": "f_096ed3c0fa8c",
    "slug": "the-city-of-glendale-recycling-center",
    "name": "The City of Glendale Recycling Center",
    "type": "recycling",
    "address": "",
    "lat": 34.1330331,
    "lng": -118.263824,
    "website": null,
    "osm_url": "https://www.openstreetmap.org/node/6625254250",
    "appears_in": [
      {
        "state": "california",
        "city": "los-angeles"
      }
    ]
  },
  {
    "id": "f_89a4460213b2",
    "slug": "the-salvation-army",
    "name": "The Salvation Army",
    "type": "recycling",
    "address": "",
    "lat": 34.1869291,
    "lng": -118.458718,
    "website": null,
    "osm_url": "https://www.openstreetmap.org/node/7510039808",
    "appears_in": [
      {
        "state": "california",
        "city": "los-angeles"
      }
    ]
  },
  {
    "id": "f_163e7ce35258",
    "slug": "f_163e7ce35258",
    "name": "Unnamed site",
    "type": "recycling",
    "address": "",
    "lat": 34.0207964,
    "lng": -118.4674062,
    "website": "https://treemachine.us",
    "osm_url": "https://www.openstreetmap.org/node/12695709798",
    "appears_in": [
      {
        "state": "california",
        "city": "los-angeles"
      }
    ]
  },
  {
    "id": "f_123e3f36aa38",
    "slug": "f_123e3f36aa38",
    "name": "Unnamed site",
    "type": "recycling",
    "address": "",
    "lat": 34.0207873,
    "lng": -118.4673972,
    "website": "https://treemachine.us",
    "osm_url": "https://www.openstreetmap.org/node/12695709799",
    "appears_in": [
      {
        "state": "california",
        "city": "los-angeles"
      }
    ]
  },
  {
    "id": "f_52cfe065e5df",
    "slug": "f_52cfe065e5df",
    "name": "Unnamed site",
    "type": "recycling",
    "address": "",
    "lat": 37.8535714,
    "lng": -122.2793099,
    "website": "https://urbanfarmoasis.org/faq/used-oil-collection/",
    "osm_url": "https://www.openstreetmap.org/node/12841003796",
    "appears_in": [
      {
        "state": "california",
        "city": "oakland"
      }
    ]
  },
  {
    "id": "f_2f92efd124dd",
    "slug": "f_2f92efd124dd",
    "name": "Unnamed site",
    "type": "recycling",
    "address": "1302;1312 Kirkham Ct Oakland CA 94607",
    "lat": 37.809913,
    "lng": -122.289968,
    "website": null,
    "osm_url": "https://www.openstreetmap.org/way/1458155815",
    "appears_in": [
      {
        "state": "california",
        "city": "oakland"
      },
      {
        "state": "california",
        "city": "san-francisco"
      }
    ]
  },
  {
    "id": "f_e46232cf8a11",
    "slug": "f_e46232cf8a11",
    "name": "Unnamed site",
    "type": "recycling",
    "address": "",
    "lat": 37.352891,
    "lng": -121.9987285,
    "website": "http://7grecycling.com/",
    "osm_url": "https://www.openstreetmap.org/node/627246939",
    "appears_in": [
      {
        "state": "california",
        "city": "san-jose"
      }
    ]
  },
  {
    "id": "f_679e5d590ee2",
    "slug": "f_679e5d590ee2",
    "name": "Unnamed site",
    "type": "recycling",
    "address": "",
    "lat": 37.388607,
    "lng": -122.0286041,
    "website": "http://recycleforchange.org",
    "osm_url": "https://www.openstreetmap.org/node/4875101908",
    "appears_in": [
      {
        "state": "california",
        "city": "san-jose"
      }
    ]
  },
  {
    "id": "f_aae615b8a7c7",
    "slug": "urban-ore-donations",
    "name": "Urban Ore Donations",
    "type": "recycling",
    "address": "",
    "lat": 37.8503618,
    "lng": -122.2899934,
    "website": "https://urbanore.com/",
    "osm_url": "https://www.openstreetmap.org/node/4306097756",
    "appears_in": [
      {
        "state": "california",
        "city": "oakland"
      },
      {
        "state": "california",
        "city": "san-francisco"
      }
    ]
  },
  {
    "id": "f_1a8a1d202196",
    "slug": "usagain",
    "name": "USAgain",
    "type": "recycling",
    "address": "",
    "lat": 37.8809422,
    "lng": -122.277739,
    "website": null,
    "osm_url": "https://www.openstreetmap.org/node/10939302442",
    "appears_in": [
      {
        "state": "california",
        "city": "oakland"
      }
    ]
  },
  {
    "id": "f_cffa4acab1d0",
    "slug": "usagain",
    "name": "USAgain",
    "type": "recycling",
    "address": "",
    "lat": 37.3505674,
    "lng": -121.897406,
    "website": null,
    "osm_url": "https://www.openstreetmap.org/node/6398563851",
    "appears_in": [
      {
        "state": "california",
        "city": "san-jose"
      }
    ]
  },
  {
    "id": "f_4e4cd5837faa",
    "slug": "usagain",
    "name": "USAgain",
    "type": "recycling",
    "address": "",
    "lat": 37.2160224,
    "lng": -121.7391612,
    "website": null,
    "osm_url": "https://www.openstreetmap.org/node/9776004023",
    "appears_in": [
      {
        "state": "california",
        "city": "san-jose"
      }
    ]
  },
  {
    "id": "f_79e436b749b4",
    "slug": "usagain",
    "name": "USAGain",
    "type": "recycling",
    "address": "",
    "lat": 37.8477203,
    "lng": -122.2850771,
    "website": "https://usagain.com/",
    "osm_url": "https://www.openstreetmap.org/node/976976158",
    "appears_in": [
      {
        "state": "california",
        "city": "oakland"
      },
      {
        "state": "california",
        "city": "san-francisco"
      }
    ]
  },
  {
    "id": "f_67f2fa2460b9",
    "slug": "washington-blvd-s-a-f-e-center",
    "name": "Washington Blvd. S.A.F.E. Center",
    "type": "transfer_station",
    "address": "2649 East Washington Boulevard Los Angeles CA 90021",
    "lat": 34.0178538,
    "lng": -118.2254111,
    "website": "https://www.lacitysan.org/san/faces/home/portal/s-lsh-wwd/s-lsh-wwd-s/s-lsh-wwd-s-c/s-lsh-wwd-s-c-hw/s-lsh-wwd-s-c-hw-safemc?_adf.ctrl-state=vczkvt7hx_738",
    "osm_url": "https://www.openstreetmap.org/way/1261050567",
    "appears_in": [
      {
        "state": "california",
        "city": "los-angeles"
      }
    ]
  },
  {
    "id": "f_6ff845bc3cbb",
    "slug": "waste-management-davis-street-recycling-center",
    "name": "Waste Management Davis Street Recycling Center",
    "type": "recycling",
    "address": "",
    "lat": 37.7119876,
    "lng": -122.1940962,
    "website": null,
    "osm_url": "https://www.openstreetmap.org/way/405040261",
    "appears_in": [
      {
        "state": "california",
        "city": "oakland"
      }
    ]
  },
  {
    "id": "f_8f1894c14b48",
    "slug": "zanker-material-processing-facility",
    "name": "Zanker Material Processing Facility",
    "type": "landfill",
    "address": "675 Los Esteros Road San Jose CA 95134",
    "lat": 37.4334932,
    "lng": -121.9562618,
    "website": null,
    "osm_url": "https://www.openstreetmap.org/way/503235355",
    "appears_in": [
      {
        "state": "california",
        "city": "san-jose"
      }
    ]
  },
  {
    "id": "f_575006b6183f",
    "slug": "zanker-rd-landfill",
    "name": "Zanker Rd Landfill",
    "type": "landfill",
    "address": "705 Los Esteros Road San Jose 95134",
    "lat": 37.4389171,
    "lng": -121.9491638,
    "website": null,
    "osm_url": "https://www.openstreetmap.org/way/28520406",
    "appears_in": [
      {
        "state": "california",
        "city": "san-jose"
      }
    ]
  },
  {
    "id": "f_c00346d40a2e",
    "slug": "zero-waste-energy-development-company",
    "name": "Zero Waste Energy Development Company",
    "type": "recycling",
    "address": "685 Los Esteros Road San Jose CA 95134",
    "lat": 37.4341022,
    "lng": -121.9507876,
    "website": null,
    "osm_url": "https://www.openstreetmap.org/way/482783028",
    "appears_in": [
      {
        "state": "california",
        "city": "san-jose"
      }
    ]
  }
]