[
  {
    "id": "f_b669341875bf",
    "slug": "130-environmental-park",
    "name": "130 ENVIRONMENTAL PARK",
    "type": "landfill",
    "address": "NORTH OF US HWY 183 APPROX 1500 FT NORTH OF FARM TO MARKET RD 1185 TO SITE ENTRANCE RD ON EAST SIDE OF US HWY 183 LOCKHART TX 78644",
    "lat": 29.97,
    "lng": -97.66,
    "website": null,
    "osm_url": null,
    "appears_in": [
      {
        "state": "texas",
        "city": "lockhart"
      }
    ]
  },
  {
    "id": "f_d079cbc26be7",
    "slug": "7250-fm-1346",
    "name": "7250 FM 1346",
    "type": "landfill",
    "address": "7250 FM 1346 SAN ANTONIO TX 78220",
    "lat": 29.42,
    "lng": -98.35,
    "website": null,
    "osm_url": null,
    "appears_in": [
      {
        "state": "texas",
        "city": "san-antonio"
      }
    ]
  },
  {
    "id": "f_52437142f778",
    "slug": "abilene-environmental-landfill-inc",
    "name": "ABILENE ENVIRONMENTAL LANDFILL INC",
    "type": "landfill",
    "address": "1983 FM 3034 ABILENE TX 79601",
    "lat": 32.53,
    "lng": -99.76,
    "website": null,
    "osm_url": null,
    "appears_in": [
      {
        "state": "texas",
        "city": "abilene"
      }
    ]
  },
  {
    "id": "f_992175aa196b",
    "slug": "abilene-landfill-tx-lp",
    "name": "ABILENE LANDFILL TX LP",
    "type": "landfill",
    "address": "US HWY 277 & FM 3034 IN JONES COUNTY ABILENE TX 79604",
    "lat": 32.52,
    "lng": -99.75,
    "website": null,
    "osm_url": null,
    "appears_in": [
      {
        "state": "texas",
        "city": "in-jones-county-abilene"
      }
    ]
  },
  {
    "id": "f_fa278ebeecdf",
    "slug": "angelina-and-neches-river-authority-composting-facility",
    "name": "ANGELINA  AND NECHES RIVER AUTHORITY COMPOSTING FACILITY",
    "type": "recycling",
    "address": "609 HWY 79 NORTH JACKSONVILLE TX 75766",
    "lat": 31.9,
    "lng": -95.4,
    "website": null,
    "osm_url": null,
    "appears_in": [
      {
        "state": "texas",
        "city": "north-jacksonville"
      }
    ]
  },
  {
    "id": "f_337950d3b9b1",
    "slug": "angelina-county-landfill",
    "name": "ANGELINA COUNTY LANDFILL",
    "type": "landfill",
    "address": "7521 FM 58 LUFKIN TX 75901",
    "lat": 31.25,
    "lng": -94.7,
    "website": null,
    "osm_url": null,
    "appears_in": [
      {
        "state": "texas",
        "city": "lufkin"
      }
    ]
  },
  {
    "id": "f_020ec6797e3b",
    "slug": "aransas-county-tranfer-station-facility",
    "name": "ARANSAS COUNTY TRANFER STATION FACILITY",
    "type": "landfill",
    "address": "1301 PRAIRIE FULTON TX 78358",
    "lat": 30.39,
    "lng": -97.67,
    "website": null,
    "osm_url": null,
    "appears_in": [
      {
        "state": "texas",
        "city": "prairie-fulton"
      }
    ]
  },
  {
    "id": "f_4a386c458c62",
    "slug": "ark-la-tex-shredding",
    "name": "ARK-LA-TEX SHREDDING",
    "type": "landfill",
    "address": "12405 HIGHWAY 155 N TYLER TX 75708",
    "lat": 32.44,
    "lng": -95.19,
    "website": null,
    "osm_url": null,
    "appears_in": [
      {
        "state": "texas",
        "city": "n-tyler"
      }
    ]
  },
  {
    "id": "f_6cf9cb5fb62a",
    "slug": "austin-country-inc",
    "name": "AUSTIN COUNTRY INC",
    "type": "landfill",
    "address": "9500 E HIGHWAY 290 AUSTIN TX 78724",
    "lat": 30.33,
    "lng": -97.46,
    "website": null,
    "osm_url": null,
    "appears_in": [
      {
        "state": "texas",
        "city": "austin"
      }
    ]
  },
  {
    "id": "f_33e2d348d63a",
    "slug": "austin-wood-recycling",
    "name": "Austin Wood Recycling",
    "type": "recycling",
    "address": "9201 FM 812 Austin TX 78719",
    "lat": 30.1555498,
    "lng": -97.6873274,
    "website": "https://www.austinwoodrecycling.com/",
    "osm_url": "https://www.openstreetmap.org/way/1185824388",
    "appears_in": [
      {
        "state": "texas",
        "city": "austin"
      }
    ]
  },
  {
    "id": "f_9cc791b1dea8",
    "slug": "austin-wood-recycling",
    "name": "Austin Wood Recycling",
    "type": "recycling",
    "address": "9201 FM 812 Austin TX 78719",
    "lat": 30.1555498,
    "lng": -97.6873274,
    "website": "https://www.austinwoodrecycling.com/",
    "osm_url": null,
    "appears_in": [
      {
        "state": "texas",
        "city": "austin"
      }
    ]
  },
  {
    "id": "f_eb13738f5458",
    "slug": "bastrop-transfer-station",
    "name": "BASTROP TRANSFER STATION",
    "type": "transfer_station",
    "address": "2019 SH 121 W CEDAR CREEK TX 78612",
    "lat": 30.75,
    "lng": -97.56,
    "website": null,
    "osm_url": null,
    "appears_in": [
      {
        "state": "texas",
        "city": "w-cedar-creek"
      }
    ]
  },
  {
    "id": "f_15ebcf94df65",
    "slug": "beck-landfill-nido-ltd",
    "name": "BECK LANDFILL NIDO LTD",
    "type": "landfill",
    "address": "550 FM 78 SCHERTZ TX 78154",
    "lat": 29.55,
    "lng": -98.27,
    "website": null,
    "osm_url": null,
    "appears_in": [
      {
        "state": "texas",
        "city": "schertz"
      }
    ]
  },
  {
    "id": "f_8bb6cfea0c29",
    "slug": "biocycle",
    "name": "BIOCYCLE",
    "type": "landfill",
    "address": "8783 US HWY NO 60 AMARILLO TX 79108",
    "lat": 35.22,
    "lng": -100.74,
    "website": null,
    "osm_url": null,
    "appears_in": [
      {
        "state": "texas",
        "city": "amarillo"
      }
    ]
  },
  {
    "id": "f_21313bdd5a7e",
    "slug": "blanco-county-transfer-station",
    "name": "BLANCO COUNTY TRANSFER STATION",
    "type": "transfer_station",
    "address": "2021 N HWY 281 JOHNSON CITY TX 78636",
    "lat": 30.25,
    "lng": -98.38,
    "website": null,
    "osm_url": null,
    "appears_in": [
      {
        "state": "texas",
        "city": "johnson-city"
      }
    ]
  },
  {
    "id": "f_4e8a2aca8df5",
    "slug": "blue-ridge-landfill",
    "name": "BLUE RIDGE LANDFILL",
    "type": "landfill",
    "address": "2200 FM 521 RD FRESNO TX 77545",
    "lat": 29.58,
    "lng": -95.43,
    "website": null,
    "osm_url": null,
    "appears_in": [
      {
        "state": "texas",
        "city": "rd-fresno"
      }
    ]
  },
  {
    "id": "f_35b2325d4070",
    "slug": "blue-ridge-lfg-treatment-facility",
    "name": "BLUE RIDGE LFG TREATMENT FACILITY",
    "type": "landfill",
    "address": "2200 FM 521 RD FRESNO TX 77545",
    "lat": 29.58,
    "lng": -95.43,
    "website": null,
    "osm_url": null,
    "appears_in": [
      {
        "state": "texas",
        "city": "rd-fresno"
      }
    ]
  },
  {
    "id": "f_4f46e7007e95",
    "slug": "bowie-transfer-station",
    "name": "BOWIE TRANSFER STATION",
    "type": "transfer_station",
    "address": "1201 EAST ROACH RD #4 BOWIE TX 76230",
    "lat": 33.57,
    "lng": -97.82,
    "website": null,
    "osm_url": null,
    "appears_in": [
      {
        "state": "texas",
        "city": "bowie"
      }
    ]
  },
  {
    "id": "f_ee527d06d3ab",
    "slug": "brazoria-county-recycling-center-transfer-station-facility",
    "name": "BRAZORIA COUNTY RECYCLING CENTER TRANSFER STATION FACILITY",
    "type": "transfer_station",
    "address": "10315 FM 523 ANGLETON TX 77515",
    "lat": 29.09,
    "lng": -95.37,
    "website": null,
    "osm_url": null,
    "appears_in": [
      {
        "state": "texas",
        "city": "angleton"
      }
    ]
  },
  {
    "id": "f_350cc02078a6",
    "slug": "caliche-canyon-transfer-station-facility",
    "name": "CALICHE CANYON TRANSFER STATION FACILITY",
    "type": "transfer_station",
    "address": "8425 AVENUE P LUBBOCK TX 79423",
    "lat": 33.67,
    "lng": -101.86,
    "website": null,
    "osm_url": null,
    "appears_in": [
      {
        "state": "texas",
        "city": "avenue-p-lubbock"
      }
    ]
  },
  {
    "id": "f_3e5badbbc492",
    "slug": "carmax-auto-7115-enclosed-structure-over-closed-landfill",
    "name": "CARMAX AUTO 7115 ENCLOSED STRUCTURE OVER CLOSED LANDFILL",
    "type": "landfill",
    "address": "3100 SPUR 482 IRVING TX 75062",
    "lat": 32.84,
    "lng": -96.9,
    "website": null,
    "osm_url": null,
    "appears_in": [
      {
        "state": "texas",
        "city": "irving"
      }
    ]
  },
  {
    "id": "f_de1dfb6a877c",
    "slug": "chambers-county-landfill",
    "name": "CHAMBERS COUNTY LANDFILL",
    "type": "landfill",
    "address": "7501 HIGHWAY 65 MONROE CITY TX 77514",
    "lat": 29.8,
    "lng": -94.52,
    "website": null,
    "osm_url": null,
    "appears_in": [
      {
        "state": "texas",
        "city": "monroe-city"
      }
    ]
  },
  {
    "id": "f_e5fc4e1686b4",
    "slug": "city-of-alice-landfill",
    "name": "CITY OF ALICE LANDFILL",
    "type": "landfill",
    "address": "3217 N US HIGHWAY 281 ALICE TX 78332",
    "lat": 27.79,
    "lng": -98.1,
    "website": null,
    "osm_url": null,
    "appears_in": [
      {
        "state": "texas",
        "city": "alice"
      }
    ]
  },
  {
    "id": "f_b6163a2eae75",
    "slug": "city-of-alpine-landfill",
    "name": "CITY OF ALPINE LANDFILL",
    "type": "landfill",
    "address": "100 N 13TH ST ALPINE TX 79830",
    "lat": 30.38,
    "lng": -103.5,
    "website": null,
    "osm_url": null,
    "appears_in": [
      {
        "state": "texas",
        "city": "st-alpine"
      }
    ]
  },
  {
    "id": "f_7924913007bd",
    "slug": "city-of-amarillo-transfer-station",
    "name": "CITY OF AMARILLO TRANSFER STATION",
    "type": "transfer_station",
    "address": "811 SE 27TH AVE AMARILLO TX 79103",
    "lat": 35.19,
    "lng": -101.83,
    "website": null,
    "osm_url": null,
    "appears_in": [
      {
        "state": "texas",
        "city": "ave-amarillo"
      }
    ]
  },
  {
    "id": "f_0339733503e8",
    "slug": "city-of-amherst-landfill",
    "name": "CITY OF AMHERST LANDFILL",
    "type": "landfill",
    "address": ".4 MILES E OF AMHERST  .3 MILES N OF FM 37 AMHERST TX 79312",
    "lat": 34.02,
    "lng": -102.4,
    "website": null,
    "osm_url": null,
    "appears_in": [
      {
        "state": "texas",
        "city": "amherst"
      }
    ]
  },
  {
    "id": "f_dd202737a749",
    "slug": "city-of-austin",
    "name": "CITY OF AUSTIN",
    "type": "landfill",
    "address": "1901 E 51ST ST AUSTIN TX 78723",
    "lat": 30.3,
    "lng": -97.7,
    "website": null,
    "osm_url": null,
    "appears_in": [
      {
        "state": "texas",
        "city": "st-austin"
      }
    ]
  },
  {
    "id": "f_453a21ac05b5",
    "slug": "city-of-big-lake-landfill",
    "name": "CITY OF BIG LAKE LANDFILL",
    "type": "landfill",
    "address": "1901 W HWY 67 BIG LAKE TX 76932",
    "lat": 31.19,
    "lng": -101.5,
    "website": null,
    "osm_url": null,
    "appears_in": [
      {
        "state": "texas",
        "city": "big-lake"
      }
    ]
  },
  {
    "id": "f_a3907e416d12",
    "slug": "city-of-big-spring-landfill",
    "name": "CITY OF BIG SPRING LANDFILL",
    "type": "landfill",
    "address": "4100 E FM 700 BIG SPRING TX 79720",
    "lat": 32.26,
    "lng": -101.42,
    "website": null,
    "osm_url": null,
    "appears_in": [
      {
        "state": "texas",
        "city": "big-spring"
      }
    ]
  },
  {
    "id": "f_e4cc50e737d1",
    "slug": "city-of-booker-landfill",
    "name": "CITY OF BOOKER LANDFILL",
    "type": "landfill",
    "address": "2.6 MILE NNE OF INTERSECTION FM 23 AND STATE HIGHWAY 15 IN BOOKER BOOKER TX 79005",
    "lat": 36.49,
    "lng": -100.52,
    "website": null,
    "osm_url": null,
    "appears_in": [
      {
        "state": "texas",
        "city": "in-booker-booker"
      }
    ]
  },
  {
    "id": "f_1e3f252130f1",
    "slug": "city-of-brackettville-transfer-station-facility",
    "name": "CITY OF BRACKETTVILLE TRANSFER STATION FACILITY",
    "type": "transfer_station",
    "address": "2 MILES W OF BRACKETTVILLE ON STATE HIGHWAY 90  0.3 MILES E OF THE INTERSECTION OF US HIGHWAY 90 AND STATE ROUTE 693 BRACKETTVILLE TX",
    "lat": 29.07,
    "lng": -100.3,
    "website": null,
    "osm_url": null,
    "appears_in": [
      {
        "state": "texas",
        "city": "brackettville"
      }
    ]
  },
  {
    "id": "f_445ef7b67c54",
    "slug": "city-of-breckenridge-monofill",
    "name": "CITY OF BRECKENRIDGE MONOFILL",
    "type": "landfill",
    "address": "1548 FM 287 BRECKENRIDGE TX 76424",
    "lat": 32.77,
    "lng": -98.9,
    "website": null,
    "osm_url": null,
    "appears_in": [
      {
        "state": "texas",
        "city": "breckenridge"
      }
    ]
  },
  {
    "id": "f_726b0b3c42ee",
    "slug": "city-of-brownsville-composting-facility",
    "name": "CITY OF BROWNSVILLE COMPOSTING FACILITY",
    "type": "recycling",
    "address": "3 MI NE OF BROWNSVILLE 1.3 MI NE OF INTX OF SH-4 BROWNSVILLE TX",
    "lat": 25.94,
    "lng": -97.39,
    "website": null,
    "osm_url": null,
    "appears_in": [
      {
        "state": "texas",
        "city": "brownsville"
      }
    ]
  },
  {
    "id": "f_911dc188542e",
    "slug": "city-of-canadian-transfer-station-facility",
    "name": "CITY OF CANADIAN TRANSFER STATION FACILITY",
    "type": "transfer_station",
    "address": "N OF AIRPORT ROAD 800 FEET W INTERSECTION OF AIRPORT ROAD AND US HIGHWAY 60 AND US HIGHWAY 83 CANADIAN TX",
    "lat": 35.9,
    "lng": -100.4,
    "website": null,
    "osm_url": null,
    "appears_in": [
      {
        "state": "texas",
        "city": "canadian"
      }
    ]
  },
  {
    "id": "f_6aefd491d76a",
    "slug": "city-of-canton-transfer-station",
    "name": "CITY OF CANTON TRANSFER STATION",
    "type": "transfer_station",
    "address": "1810 VZ COUNTY RD 3121 CANTON TX 75103",
    "lat": 32.59,
    "lng": -95.87,
    "website": null,
    "osm_url": null,
    "appears_in": [
      {
        "state": "texas",
        "city": "canton"
      }
    ]
  },
  {
    "id": "f_dde8b2ebf462",
    "slug": "city-of-carthage-transfer-station-facility",
    "name": "CITY OF CARTHAGE TRANSFER STATION FACILITY",
    "type": "transfer_station",
    "address": "INSIDE CITY LIMITS OF CARTHAGE  ADJACENT TO AND ON THE W SIDE OF LASALLE PARKWAY AND US HIGHWAY 59  APPROXIMATELY 0.8 MILES N OF THE INTERSECTION OF LASALLE PARKWAY AND US HIGHWAY 79 IN PANOLA COUNTY CARTHAGE TX",
    "lat": 32.18,
    "lng": -94.32,
    "website": null,
    "osm_url": null,
    "appears_in": [
      {
        "state": "texas",
        "city": "in-panola-county-carthage"
      }
    ]
  },
  {
    "id": "f_2433238183bd",
    "slug": "city-of-clarendon-landfill-smiley-johnson-airport",
    "name": "CITY OF CLARENDON LANDFILL SMILEY JOHNSON AIRPORT",
    "type": "landfill",
    "address": "119 S SULLY CLARENDON TX 79226",
    "lat": 34.91,
    "lng": -100.87,
    "website": null,
    "osm_url": null,
    "appears_in": [
      {
        "state": "texas",
        "city": "s-sully-clarendon"
      }
    ]
  },
  {
    "id": "f_e76498cdb3c8",
    "slug": "city-of-colorado-city-landfill",
    "name": "CITY OF COLORADO CITY LANDFILL",
    "type": "landfill",
    "address": "222 W COUNTY ROAD 141 COLORADO CITY TX 79512",
    "lat": 32.42,
    "lng": -100.87,
    "website": null,
    "osm_url": null,
    "appears_in": [
      {
        "state": "texas",
        "city": "colorado-city"
      }
    ]
  },
  {
    "id": "f_30d0e0b02d29",
    "slug": "city-of-copperas-cove-transfer-station-facility",
    "name": "CITY OF COPPERAS COVE TRANSFER STATION FACILITY",
    "type": "transfer_station",
    "address": "2605 S FM 116 COPPERAS COVE TX 76522",
    "lat": 31.09,
    "lng": -97.9,
    "website": null,
    "osm_url": null,
    "appears_in": [
      {
        "state": "texas",
        "city": "copperas-cove"
      }
    ]
  },
  {
    "id": "f_d5d0ba0d260c",
    "slug": "city-of-corpus-christi-landfill",
    "name": "CITY OF CORPUS CHRISTI LANDFILL",
    "type": "landfill",
    "address": "2397 COUNTY ROAD 20 ROBSTOWN TX 78380",
    "lat": 27.64,
    "lng": -97.57,
    "website": null,
    "osm_url": null,
    "appears_in": [
      {
        "state": "texas",
        "city": "robstown"
      }
    ]
  },
  {
    "id": "f_34fce684040e",
    "slug": "city-of-crane-landfill",
    "name": "CITY OF CRANE LANDFILL",
    "type": "landfill",
    "address": "115 W 6TH ST CRANE TX 79731",
    "lat": 31.44,
    "lng": -102.39,
    "website": null,
    "osm_url": null,
    "appears_in": [
      {
        "state": "texas",
        "city": "st-crane"
      }
    ]
  },
  {
    "id": "f_aa7324b16cb5",
    "slug": "city-of-cross-plains",
    "name": "CITY OF CROSS PLAINS",
    "type": "landfill",
    "address": "100 CR 347 CROSS PLAINS TX 76443",
    "lat": 32.11,
    "lng": -99.17,
    "website": null,
    "osm_url": null,
    "appears_in": [
      {
        "state": "texas",
        "city": "cross-plains"
      }
    ]
  },
  {
    "id": "f_32dce4e6c0f9",
    "slug": "city-of-dumas-landfill",
    "name": "CITY OF DUMAS LANDFILL",
    "type": "landfill",
    "address": "13 MI E OF DUMAS & 1.5 MI N OF SH 152 IN MOORE COUNTY DUMAS TX 79029",
    "lat": 35.87,
    "lng": -101.74,
    "website": null,
    "osm_url": null,
    "appears_in": [
      {
        "state": "texas",
        "city": "in-moore-county-dumas"
      }
    ]
  },
  {
    "id": "f_325a77caf13c",
    "slug": "city-of-eagle-pass-and-maverick-landfill",
    "name": "CITY OF EAGLE PASS AND MAVERICK LANDFILL",
    "type": "landfill",
    "address": "12.72 MILES NW OF EAGLE PASS  APPROXIMATELY 2090 FEET FROM HIGHWAY 277 AND FM 131 EAGLE PASS TX",
    "lat": 28.87,
    "lng": -100.54,
    "website": null,
    "osm_url": null,
    "appears_in": [
      {
        "state": "texas",
        "city": "eagle-pass"
      }
    ]
  },
  {
    "id": "f_d89517c3d985",
    "slug": "city-of-floydada-landfill",
    "name": "CITY OF FLOYDADA LANDFILL",
    "type": "landfill",
    "address": "2130 U S HIGHWAY 70 FLOYDADA TX 79235",
    "lat": 33.97,
    "lng": -101.3,
    "website": null,
    "osm_url": null,
    "appears_in": [
      {
        "state": "texas",
        "city": "floydada"
      }
    ]
  },
  {
    "id": "f_b99415398d0b",
    "slug": "city-of-gainesville-transfer-station-facility",
    "name": "CITY OF GAINESVILLE TRANSFER STATION FACILITY",
    "type": "transfer_station",
    "address": "601 N INTERSTATE 35 GAINESVILLE TX 76240",
    "lat": 33.63,
    "lng": -97.16,
    "website": null,
    "osm_url": null,
    "appears_in": [
      {
        "state": "texas",
        "city": "gainesville"
      }
    ]
  },
  {
    "id": "f_ea3a084228f8",
    "slug": "city-of-hallettsville-transfer-station-facility",
    "name": "CITY OF HALLETTSVILLE TRANSFER STATION FACILITY",
    "type": "transfer_station",
    "address": "804 COUNTY ROAD 201 HALLETTSVILLE TX 77964",
    "lat": 29.45,
    "lng": -96.9,
    "website": null,
    "osm_url": null,
    "appears_in": [
      {
        "state": "texas",
        "city": "hallettsville"
      }
    ]
  },
  {
    "id": "f_4859f942e684",
    "slug": "city-of-harlingen",
    "name": "CITY OF HARLINGEN",
    "type": "landfill",
    "address": "E OF LOOP 499 ED CAREY DR AND S OF HARRISON ST FM 106 HARLINGEN TX",
    "lat": 26.19,
    "lng": -97.66,
    "website": null,
    "osm_url": null,
    "appears_in": [
      {
        "state": "texas",
        "city": "harlingen"
      }
    ]
  },
  {
    "id": "f_7e5c050215cd",
    "slug": "city-of-harlingen-transfer-station",
    "name": "CITY OF HARLINGEN TRANSFER STATION",
    "type": "transfer_station",
    "address": "404 S 54TH ST HARLINGEN TX 78550",
    "lat": 30.39,
    "lng": -97.67,
    "website": null,
    "osm_url": null,
    "appears_in": [
      {
        "state": "texas",
        "city": "st-harlingen"
      }
    ]
  },
  {
    "id": "f_7d176ff9256c",
    "slug": "city-of-haskell-landfill",
    "name": "CITY OF HASKELL LANDFILL",
    "type": "landfill",
    "address": "4.2 MI E OF HASKELL ON SH-380  300 FT N @ FM RD 618 HASKELL TX",
    "lat": 33.17,
    "lng": -99.64,
    "website": null,
    "osm_url": null,
    "appears_in": [
      {
        "state": "texas",
        "city": "haskell"
      }
    ]
  },
  {
    "id": "f_2f301912a750",
    "slug": "city-of-hico-transfer-station-facility",
    "name": "CITY OF HICO TRANSFER STATION FACILITY",
    "type": "transfer_station",
    "address": "0.2 MILE SE OF THE STATE HIGHWAY 6 AND STATE HIGHWAY 220 INTERSECTION\n401 UTILITY STREET, HICO, TX 76457 HICO TX",
    "lat": 31.98,
    "lng": -98.03,
    "website": null,
    "osm_url": null,
    "appears_in": [
      {
        "state": "texas",
        "city": "hico"
      }
    ]
  },
  {
    "id": "f_34e31fcf74d9",
    "slug": "city-of-huntsville-transfer-station-facility",
    "name": "CITY OF HUNTSVILLE TRANSFER STATION FACILITY",
    "type": "transfer_station",
    "address": "590 IH 45 N HUNTSVILLE TX 77320",
    "lat": 30.74,
    "lng": -95.6,
    "website": null,
    "osm_url": null,
    "appears_in": [
      {
        "state": "texas",
        "city": "n-huntsville"
      }
    ]
  },
  {
    "id": "f_a59ec2c08a6a",
    "slug": "city-of-junction-landfill",
    "name": "CITY OF JUNCTION LANDFILL",
    "type": "landfill",
    "address": "2 MILES N OF JUNCTION NORTH OF US 377 JUNCTION TX 76849",
    "lat": 30.53,
    "lng": -99.76,
    "website": null,
    "osm_url": null,
    "appears_in": [
      {
        "state": "texas",
        "city": "junction"
      }
    ]
  },
  {
    "id": "f_385cd00b83d4",
    "slug": "city-of-kerrville-composting-facility",
    "name": "CITY OF KERRVILLE COMPOSTING FACILITY",
    "type": "recycling",
    "address": "3315 LOOP 534 KERRVILLE TX 78028",
    "lat": 30.03,
    "lng": -98.9,
    "website": null,
    "osm_url": null,
    "appears_in": [
      {
        "state": "texas",
        "city": "kerrville"
      }
    ]
  },
  {
    "id": "f_9f03b164fbe4",
    "slug": "city-of-kerrville-landfill",
    "name": "CITY OF KERRVILLE LANDFILL",
    "type": "landfill",
    "address": "3315 LOOP 534 KERRVILLE TX 78028",
    "lat": 30.03,
    "lng": -98.9,
    "website": null,
    "osm_url": null,
    "appears_in": [
      {
        "state": "texas",
        "city": "kerrville"
      }
    ]
  },
  {
    "id": "f_4c825afa0a2d",
    "slug": "city-of-kerrville-transfer-station",
    "name": "CITY OF KERRVILLE TRANSFER STATION",
    "type": "transfer_station",
    "address": "3315 LOOP 534 KERRVILLE TX 78028",
    "lat": 30.03,
    "lng": -98.9,
    "website": null,
    "osm_url": null,
    "appears_in": [
      {
        "state": "texas",
        "city": "kerrville"
      }
    ]
  },
  {
    "id": "f_f24a5c9b0af6",
    "slug": "city-of-kingsville-landfill",
    "name": "CITY OF KINGSVILLE LANDFILL",
    "type": "landfill",
    "address": "348 E COUNTY ROAD 2130 KINGSVILLE TX 78363",
    "lat": 27.45,
    "lng": -97.82,
    "website": null,
    "osm_url": null,
    "appears_in": [
      {
        "state": "texas",
        "city": "kingsville"
      }
    ]
  },
  {
    "id": "f_993fb43cfb32",
    "slug": "city-of-lamesa-landfill",
    "name": "CITY OF LAMESA LANDFILL",
    "type": "landfill",
    "address": "601 S 1ST ST LAMESA TX 79331",
    "lat": 32.7,
    "lng": -101.94,
    "website": null,
    "osm_url": null,
    "appears_in": [
      {
        "state": "texas",
        "city": "st-lamesa"
      }
    ]
  },
  {
    "id": "f_72fcc822edd3",
    "slug": "city-of-laredo-landfill",
    "name": "City of Laredo Landfill",
    "type": "landfill",
    "address": "TX 359 Laredo TX 78046",
    "lat": 27.4929346,
    "lng": -99.4100013,
    "website": "https://www.laredosolidwaste.com/index.php/services/tips-on-using-the-landfill",
    "osm_url": "https://www.openstreetmap.org/way/1151383582",
    "appears_in": [
      {
        "state": "texas",
        "city": "laredo"
      }
    ]
  },
  {
    "id": "f_7505e6cbb83d",
    "slug": "city-of-laredo-landfill",
    "name": "City of Laredo Landfill",
    "type": "landfill",
    "address": "TX 359 Laredo TX 78046",
    "lat": 27.4929346,
    "lng": -99.4100013,
    "website": "https://www.laredosolidwaste.com/index.php/services/tips-on-using-the-landfill",
    "osm_url": null,
    "appears_in": [
      {
        "state": "texas",
        "city": "laredo"
      }
    ]
  },
  {
    "id": "f_18fbed68b8af",
    "slug": "city-of-laredo-landfill",
    "name": "CITY OF LAREDO LANDFILL",
    "type": "landfill",
    "address": "6912 HWY 359 LAREDO TX 78043",
    "lat": 27.49,
    "lng": -99.41,
    "website": null,
    "osm_url": null,
    "appears_in": [
      {
        "state": "texas",
        "city": "laredo"
      }
    ]
  },
  {
    "id": "f_ca85a5619dd5",
    "slug": "city-of-levelland",
    "name": "CITY OF LEVELLAND",
    "type": "landfill",
    "address": "0.5 MI S OF FM 1585 ON BOBWHITE LEVELLAND TX 79336",
    "lat": 33.49,
    "lng": -102.33,
    "website": null,
    "osm_url": null,
    "appears_in": [
      {
        "state": "texas",
        "city": "on-bobwhite-levelland"
      }
    ]
  },
  {
    "id": "f_38c361bdf3dc",
    "slug": "city-of-lubbock-landfill",
    "name": "CITY OF LUBBOCK LANDFILL",
    "type": "landfill",
    "address": "8425 AVENUE P LUBBOCK TX 79423",
    "lat": 33.67,
    "lng": -101.86,
    "website": null,
    "osm_url": null,
    "appears_in": [
      {
        "state": "texas",
        "city": "avenue-p-lubbock"
      }
    ]
  },
  {
    "id": "f_ca3d5b329046",
    "slug": "city-of-matador-landfill",
    "name": "CITY OF MATADOR LANDFILL",
    "type": "landfill",
    "address": "1.5 MILES NORTH OF LOOP 94 1.6 MILES EAST OF SH-70 EASTSIDE OF 200 BLOCK OR CR-211 MATADOR TX 79244",
    "lat": 34.04,
    "lng": -100.82,
    "website": null,
    "osm_url": null,
    "appears_in": [
      {
        "state": "texas",
        "city": "matador"
      }
    ]
  },
  {
    "id": "f_c8a721ab26bd",
    "slug": "city-of-mccamey-landfill",
    "name": "CITY OF MCCAMEY LANDFILL",
    "type": "landfill",
    "address": "1.25 MILES SE OF FM 305 AND FM 1901 INTERSECTION 1000 FEET  E OF FM 305 MCCAMEY TX MCCAMEY TX",
    "lat": 31.11,
    "lng": -102.2,
    "website": null,
    "osm_url": null,
    "appears_in": [
      {
        "state": "texas",
        "city": "mccamey-tx-mccamey"
      }
    ]
  },
  {
    "id": "f_bb2ceca2953f",
    "slug": "city-of-mclean-landfill",
    "name": "CITY OF MCLEAN LANDFILL",
    "type": "landfill",
    "address": "1.75 MILES E OF THE CITY LIMITS OF MCLEAN N OF INTERSTATE HIGHWAY 40 FRONTAGE ROAD 1 MILE W OF COUNTY LINE RD 79057 IN GRAY COUNTY TX 79057 MCLEAN TX 79057",
    "lat": 35.23,
    "lng": -100.56,
    "website": null,
    "osm_url": null,
    "appears_in": [
      {
        "state": "texas",
        "city": "in-gray-county"
      }
    ]
  },
  {
    "id": "f_0a2ae44e339f",
    "slug": "city-of-mclean-landfill",
    "name": "CITY OF MCLEAN LANDFILL",
    "type": "landfill",
    "address": "6447 COUNTY ROAD 29 MCLEAN TX 79057",
    "lat": 35.24,
    "lng": -100.58,
    "website": null,
    "osm_url": null,
    "appears_in": [
      {
        "state": "texas",
        "city": "mclean"
      }
    ]
  },
  {
    "id": "f_1d17694f093f",
    "slug": "city-of-meadow-landfill",
    "name": "CITY OF MEADOW LANDFILL",
    "type": "landfill",
    "address": "663 COUNTY ROAD 545 MEADOW TX 79345",
    "lat": 33.3,
    "lng": -102.19,
    "website": null,
    "osm_url": null,
    "appears_in": [
      {
        "state": "texas",
        "city": "meadow"
      }
    ]
  },
  {
    "id": "f_eb55aa4b9554",
    "slug": "city-of-memphis-landfill",
    "name": "CITY OF MEMPHIS LANDFILL",
    "type": "landfill",
    "address": "APPROXIMATELY  5500 FEET SSE OF CITY OF MEMPHIS  1.3 MILES SOUTH OF INTERSECTION OF STATE HIGHWAY 287 AND FM 256 MEMPHIS TX",
    "lat": 34.7,
    "lng": -100.52,
    "website": null,
    "osm_url": null,
    "appears_in": [
      {
        "state": "texas",
        "city": "memphis"
      }
    ]
  },
  {
    "id": "f_e1881d8a1dcd",
    "slug": "city-of-menard-landfill",
    "name": "CITY OF MENARD LANDFILL",
    "type": "landfill",
    "address": "1.9 MI W OF CITY LIMITS 500 FEET N OF US HWY 190 MENARD TX",
    "lat": 30.93,
    "lng": -99.82,
    "website": null,
    "osm_url": null,
    "appears_in": [
      {
        "state": "texas",
        "city": "menard"
      }
    ]
  },
  {
    "id": "f_da11d6a96324",
    "slug": "city-of-muleshoe-landfill",
    "name": "CITY OF MULESHOE LANDFILL",
    "type": "landfill",
    "address": "1.0 MILES E OF THE MULESHOE CITY LIMITS ON US HIGHWAY 84 APPROXIMATELY 1.8 MILES SE OF THE INTERSECTION OF US HIGHWAY 84 AND STATE HIGHWAY 214 LUBBOCK TX 79347",
    "lat": 34.77,
    "lng": -102.55,
    "website": null,
    "osm_url": null,
    "appears_in": [
      {
        "state": "texas",
        "city": "lubbock"
      }
    ]
  },
  {
    "id": "f_4830a02f059f",
    "slug": "city-of-muleshoe-landfill",
    "name": "CITY OF MULESHOE LANDFILL",
    "type": "landfill",
    "address": "S OF US HIGHWAY 84  1.25 MILES E OF STATE HIGHWAY 24 SE OF MULESHOE MULESHOE TX 79347",
    "lat": 34.21,
    "lng": -102.71,
    "website": null,
    "osm_url": null,
    "appears_in": [
      {
        "state": "texas",
        "city": "se-of-muleshoe-muleshoe"
      }
    ]
  },
  {
    "id": "f_5ed52102f31b",
    "slug": "city-of-nacogdoches-grease-treatment-facility",
    "name": "CITY OF NACOGDOCHES GREASE TREATMENT FACILITY",
    "type": "landfill",
    "address": "LOCATED IN WW TREATMENT FACILITY  APROX 1.4 MI S OF LOOP 224 & .7 MI W OF FM 1275 NACOGDOCHES TX",
    "lat": 31.56,
    "lng": -94.65,
    "website": null,
    "osm_url": null,
    "appears_in": [
      {
        "state": "texas",
        "city": "nacogdoches"
      }
    ]
  },
  {
    "id": "f_9ad6aff7fb5b",
    "slug": "city-of-pampa-landfill",
    "name": "CITY OF PAMPA LANDFILL",
    "type": "landfill",
    "address": "LOCATED NORTHEAST OF THE CITY OF PAMPA ON LOOP 171 APPROXIMATELY 3 MILES NORTH OF THE INTERSECTION OF US HWY 60 AND LOOP 171 PAMPA TX 79066",
    "lat": 35.58,
    "lng": -100.93,
    "website": null,
    "osm_url": null,
    "appears_in": [
      {
        "state": "texas",
        "city": "pampa"
      }
    ]
  },
  {
    "id": "f_cc28db966a01",
    "slug": "city-of-port-arthur-landfill",
    "name": "CITY OF PORT ARTHUR LANDFILL",
    "type": "landfill",
    "address": "4732 HIGHWAY 73 PORT ARTHUR TX 77642",
    "lat": 29.88,
    "lng": -94.06,
    "website": null,
    "osm_url": null,
    "appears_in": [
      {
        "state": "texas",
        "city": "port-arthur"
      }
    ]
  },
  {
    "id": "f_738f92de8e7b",
    "slug": "city-of-post-landfill",
    "name": "CITY OF POST LANDFILL",
    "type": "landfill",
    "address": "1.3 MILES S OF US HIGHWAY 380 IN POST  0.4 MILES E OF FM 669 POST TX",
    "lat": 33.17,
    "lng": -101.38,
    "website": null,
    "osm_url": null,
    "appears_in": [
      {
        "state": "texas",
        "city": "post"
      }
    ]
  },
  {
    "id": "f_47cdba386836",
    "slug": "city-of-post-landfill",
    "name": "CITY OF POST LANDFILL",
    "type": "landfill",
    "address": "1637 CR 225 POST TX 79356",
    "lat": 33.17,
    "lng": -101.38,
    "website": null,
    "osm_url": null,
    "appears_in": [
      {
        "state": "texas",
        "city": "post"
      }
    ]
  },
  {
    "id": "f_be0ca78d4cfb",
    "slug": "city-of-roma-landfill",
    "name": "CITY OF ROMA LANDFILL",
    "type": "landfill",
    "address": "ON 3 MI NW OF ROM AND 1 MI N OF HWY 650 ROMA TX 78584",
    "lat": 26.43,
    "lng": -99.07,
    "website": null,
    "osm_url": null,
    "appears_in": [
      {
        "state": "texas",
        "city": "roma"
      }
    ]
  },
  {
    "id": "f_2827172cd966",
    "slug": "city-of-sanger-railroad-avenue-ballpark",
    "name": "CITY OF SANGER RAILROAD AVENUE BALLPARK",
    "type": "landfill",
    "address": "600 RAILROAD SANGER TX 76266",
    "lat": 33.32,
    "lng": -97.17,
    "website": null,
    "osm_url": null,
    "appears_in": [
      {
        "state": "texas",
        "city": "railroad-sanger"
      }
    ]
  },
  {
    "id": "f_6264f744e34c",
    "slug": "city-of-seymour-transfer-station-facility",
    "name": "CITY OF SEYMOUR TRANSFER STATION FACILITY",
    "type": "transfer_station",
    "address": "1 MILE SE OF SEYMOUR  FM 1286 1 MILE S OF INTERSECTION FM 114 SEYMOUR TX 76380",
    "lat": 33.56,
    "lng": -99.24,
    "website": null,
    "osm_url": null,
    "appears_in": [
      {
        "state": "texas",
        "city": "seymour"
      }
    ]
  },
  {
    "id": "f_2461202eec34",
    "slug": "city-of-snyder-landfill",
    "name": "CITY OF SNYDER LANDFILL",
    "type": "landfill",
    "address": "3621 S FM 1673 SNYDER TX 79549",
    "lat": 32.67,
    "lng": -100.81,
    "website": null,
    "osm_url": null,
    "appears_in": [
      {
        "state": "texas",
        "city": "snyder"
      }
    ]
  },
  {
    "id": "f_ea13a4505818",
    "slug": "city-of-spearman-municipal-solid-waste-landfill",
    "name": "CITY OF SPEARMAN MUNICIPAL SOLID WASTE LANDFILL",
    "type": "landfill",
    "address": ".6 MI W OF FM HWY 760  .8 MI N SH 207 IN HANSFORD COUNTY SPEARMAN TX 79081",
    "lat": 36.21,
    "lng": -101.21,
    "website": null,
    "osm_url": null,
    "appears_in": [
      {
        "state": "texas",
        "city": "in-hansford-county-spearman"
      }
    ]
  },
  {
    "id": "f_dac93178120b",
    "slug": "city-of-spur-house-disposal-site",
    "name": "CITY OF SPUR HOUSE DISPOSAL SITE",
    "type": "landfill",
    "address": "2 MI S ON FM 261 4 MI EAST SITE LOCATED ON 207 ACRES SPUR TX 79370",
    "lat": 33.45,
    "lng": -100.86,
    "website": null,
    "osm_url": null,
    "appears_in": [
      {
        "state": "texas",
        "city": "acres-spur"
      }
    ]
  },
  {
    "id": "f_5efc84c78e10",
    "slug": "city-of-stamford-building-demolition-lf",
    "name": "CITY OF STAMFORD BUILDING DEMOLITION LF",
    "type": "landfill",
    "address": "W ON TX HWY 6 FROM US HWY 277 INTERSEC FOR LESS THEN 1 MILE LOCATED AT INTERSEC OF HWY 6 & HASKELL CO RD NORTH SIDE OF HWY 6 STAMFORD TX 79663",
    "lat": 32.97,
    "lng": -99.8,
    "website": null,
    "osm_url": null,
    "appears_in": [
      {
        "state": "texas",
        "city": "w-on"
      }
    ]
  },
  {
    "id": "f_2218dd7e8f3d",
    "slug": "city-of-stanton-landfill",
    "name": "CITY OF STANTON LANDFILL",
    "type": "landfill",
    "address": "3801 INTERSTATE 20 STANTON TX 79782",
    "lat": 32.16,
    "lng": -101.74,
    "website": null,
    "osm_url": null,
    "appears_in": [
      {
        "state": "texas",
        "city": "stanton"
      }
    ]
  },
  {
    "id": "f_2f88785a125d",
    "slug": "city-of-stephenville-landfill",
    "name": "CITY OF STEPHENVILLE LANDFILL",
    "type": "landfill",
    "address": "669 CO RD 385 STEPHENVILLE TX 76401",
    "lat": 32.18,
    "lng": -98.29,
    "website": null,
    "osm_url": null,
    "appears_in": [
      {
        "state": "texas",
        "city": "stephenville"
      }
    ]
  },
  {
    "id": "f_3ce708a05b24",
    "slug": "city-of-sudan",
    "name": "CITY OF SUDAN",
    "type": "landfill",
    "address": "TAKE HWY 303 N FROM HWY 84 TAKE A RIGHT AT SHANNON ST GO APPROX 4000 E THEN N 2000 TO SITE SUDAN TX 79312",
    "lat": 34.08,
    "lng": -102.51,
    "website": null,
    "osm_url": null,
    "appears_in": [
      {
        "state": "texas",
        "city": "to-site-sudan"
      }
    ]
  },
  {
    "id": "f_76eceb81a833",
    "slug": "city-of-sweetwater-landfill",
    "name": "CITY OF SWEETWATER LANDFILL",
    "type": "landfill",
    "address": "5254 NORTH IH-20 SWEETWATER TX 79556",
    "lat": 32.49,
    "lng": -100.32,
    "website": null,
    "osm_url": null,
    "appears_in": [
      {
        "state": "texas",
        "city": "sweetwater"
      }
    ]
  },
  {
    "id": "f_c5dc127c8ea9",
    "slug": "city-of-tulia-municipal-solid-waste-landfill",
    "name": "CITY OF TULIA MUNICIPAL SOLID WASTE LANDFILL",
    "type": "landfill",
    "address": "APPROX 1.84 MI E OF INTX OF FM R 1318 AND FM 146 IN SWISHER COUNTY TULIA TX",
    "lat": 34.54,
    "lng": -101.72,
    "website": null,
    "osm_url": null,
    "appears_in": [
      {
        "state": "texas",
        "city": "in-swisher-county-tulia"
      }
    ]
  },
  {
    "id": "f_4a564e32f5ff",
    "slug": "city-of-uvalde-landfill",
    "name": "CITY OF UVALDE LANDFILL",
    "type": "landfill",
    "address": "3774 FM 481 UVALDE TX 78801",
    "lat": 29.18,
    "lng": -99.86,
    "website": null,
    "osm_url": null,
    "appears_in": [
      {
        "state": "texas",
        "city": "uvalde"
      }
    ]
  },
  {
    "id": "f_f7cd5e3aa91c",
    "slug": "city-of-vernon-transfer-station-facility",
    "name": "CITY OF VERNON TRANSFER STATION FACILITY",
    "type": "transfer_station",
    "address": "11053 COUNTY ROAD 97 N VERNON TX 76384",
    "lat": 34.21,
    "lng": -99.34,
    "website": null,
    "osm_url": null,
    "appears_in": [
      {
        "state": "texas",
        "city": "n-vernon"
      }
    ]
  },
  {
    "id": "f_36e5b31e1352",
    "slug": "city-of-victoria-landfill",
    "name": "CITY OF VICTORIA LANDFILL",
    "type": "landfill",
    "address": "18545 FM 1686 VICTORIA TX 77905",
    "lat": 28.69,
    "lng": -96.91,
    "website": null,
    "osm_url": null,
    "appears_in": [
      {
        "state": "texas",
        "city": "victoria"
      }
    ]
  },
  {
    "id": "f_50dfe6b57f34",
    "slug": "city-of-victoria-landfill-gas-treatment-facility",
    "name": "CITY OF VICTORIA LANDFILL GAS TREATMENT FACILITY",
    "type": "landfill",
    "address": "18545 FM 1686 VICTORIA TX 77905",
    "lat": 28.69,
    "lng": -96.91,
    "website": null,
    "osm_url": null,
    "appears_in": [
      {
        "state": "texas",
        "city": "victoria"
      }
    ]
  },
  {
    "id": "f_b455ee88de67",
    "slug": "city-of-waco-landfill",
    "name": "CITY OF WACO LANDFILL",
    "type": "landfill",
    "address": "SITE ENTRANCE IS APPROX 70 FT E OF THE INTERSECTION OF HAPPY SWANER LN AND TK PKWY FM 939 NORTHERN BOUNDARY IS APPROX 0.4 MI FROM STATE ROUTE 31 W WACO TX 76624",
    "lat": 31.7,
    "lng": -96.93,
    "website": null,
    "osm_url": null,
    "appears_in": [
      {
        "state": "texas",
        "city": "w-waco"
      }
    ]
  },
  {
    "id": "f_7055a70af39f",
    "slug": "city-of-woodville-transfer-station-facility",
    "name": "CITY OF WOODVILLE TRANSFER STATION FACILITY",
    "type": "transfer_station",
    "address": "WINGATE STREET WOODVILLE TEXAS  ABOUT 1000 FEET FROM US HIGHWAY 69 S WOODVILLE TX",
    "lat": 30.78,
    "lng": -94.36,
    "website": null,
    "osm_url": null,
    "appears_in": [
      {
        "state": "texas",
        "city": "s-woodville"
      }
    ]
  },
  {
    "id": "f_a62e483f335f",
    "slug": "coastal-plains-recycling-and-landfill-facility",
    "name": "COASTAL PLAINS RECYCLING  AND LANDFILL FACILITY",
    "type": "recycling",
    "address": "21000 E HIGHWAY 6 ALVIN TX 77511",
    "lat": 29.42,
    "lng": -95.19,
    "website": null,
    "osm_url": null,
    "appears_in": [
      {
        "state": "texas",
        "city": "alvin"
      }
    ]
  },
  {
    "id": "f_68a76ac35d02",
    "slug": "cobb-building",
    "name": "COBB BUILDING",
    "type": "landfill",
    "address": "900 BLOCK CR 622 DIMMITT TX 79027",
    "lat": 34.44,
    "lng": -102.38,
    "website": null,
    "osm_url": null,
    "appears_in": [
      {
        "state": "texas",
        "city": "dimmitt"
      }
    ]
  },
  {
    "id": "f_698598a16820",
    "slug": "cold-springs-processing-and-disposal",
    "name": "COLD SPRINGS PROCESSING & DISPOSAL",
    "type": "landfill",
    "address": "1300 COLD SPRINGS RD BLDG 2 FORT WORTH TX 76102",
    "lat": 32.77,
    "lng": -97.33,
    "website": null,
    "osm_url": null,
    "appears_in": [
      {
        "state": "texas",
        "city": "fort-worth"
      }
    ]
  },
  {
    "id": "f_13660b20dfef",
    "slug": "conroe-industrial-non-hazardous-landfill",
    "name": "CONROE INDUSTRIAL NON-HAZARDOUS LANDFILL",
    "type": "landfill",
    "address": "2525 N LOOP 336 E CONROE TX 77301",
    "lat": 30.34,
    "lng": -95.41,
    "website": null,
    "osm_url": null,
    "appears_in": [
      {
        "state": "texas",
        "city": "e-conroe"
      }
    ]
  },
  {
    "id": "f_4e11b36047ac",
    "slug": "corpus-christi-rng-facility",
    "name": "CORPUS CHRISTI RNG FACILITY",
    "type": "landfill",
    "address": "2397 COUNTY ROAD 20 ROBSTOWN TX 78380",
    "lat": 27.64,
    "lng": -97.57,
    "website": null,
    "osm_url": null,
    "appears_in": [
      {
        "state": "texas",
        "city": "robstown"
      }
    ]
  },
  {
    "id": "f_de819e140f91",
    "slug": "dallas-disposal-interest-lp-southwaste-disposal-facility",
    "name": "DALLAS DISPOSAL INTEREST LP SOUTHWASTE DISPOSAL FACILITY",
    "type": "landfill",
    "address": "525 S 6TH AVE MANSFIELD TX 76063",
    "lat": 32.55,
    "lng": -97.15,
    "website": null,
    "osm_url": null,
    "appears_in": [
      {
        "state": "texas",
        "city": "ave-mansfield"
      }
    ]
  },
  {
    "id": "f_7e0c99507733",
    "slug": "daniels-sharpsmart-houston-facility",
    "name": "DANIELS SHARPSMART HOUSTON FACILITY",
    "type": "landfill",
    "address": "4660 WORLD HOUSTON PKWY STE 150 HOUSTON TX 77032",
    "lat": 29.94,
    "lng": -95.32,
    "website": null,
    "osm_url": null,
    "appears_in": [
      {
        "state": "texas",
        "city": "houston"
      }
    ]
  },
  {
    "id": "f_a788133a7f75",
    "slug": "diamond-back-solid-waste-facility-and-recycling-center",
    "name": "DIAMOND BACK SOLID WASTE FACILITY AND RECYCLING CENTER",
    "type": "recycling",
    "address": "2301 FM 866 ODESSA TX 79763",
    "lat": 31.79,
    "lng": -102.55,
    "website": null,
    "osm_url": null,
    "appears_in": [
      {
        "state": "texas",
        "city": "odessa"
      }
    ]
  },
  {
    "id": "f_edf5bc84e93c",
    "slug": "dimmit-county-type-1ae-msw-facility",
    "name": "DIMMIT COUNTY TYPE 1AE MSW FACILITY",
    "type": "landfill",
    "address": "6681 US HWY 83 CARRIZO SPRINGS TX 78834",
    "lat": 28.6,
    "lng": -99.84,
    "website": null,
    "osm_url": null,
    "appears_in": [
      {
        "state": "texas",
        "city": "carrizo-springs"
      }
    ]
  },
  {
    "id": "f_d4aa441f8c8e",
    "slug": "east-texas-regional-landfill",
    "name": "EAST TEXAS REGIONAL LANDFILL",
    "type": "landfill",
    "address": "5155 FM 2867 E HENDERSON TX 75654",
    "lat": 32.13,
    "lng": -94.71,
    "website": null,
    "osm_url": null,
    "appears_in": [
      {
        "state": "texas",
        "city": "e-henderson"
      }
    ]
  },
  {
    "id": "f_2a86530fc941",
    "slug": "ec-enterprises",
    "name": "EC ENTERPRISES",
    "type": "landfill",
    "address": "21090 FM 1303 ELMENDORF TX 78112",
    "lat": 29.21,
    "lng": -98.35,
    "website": null,
    "osm_url": null,
    "appears_in": [
      {
        "state": "texas",
        "city": "elmendorf"
      }
    ]
  },
  {
    "id": "f_7be7c5c5b576",
    "slug": "ecd-landfill",
    "name": "ECD LANDFILL",
    "type": "landfill",
    "address": "5703 N INTERSTATE HIGHWAY 45 ENNIS TX 75119",
    "lat": 32.39,
    "lng": -96.65,
    "website": null,
    "osm_url": null,
    "appears_in": [
      {
        "state": "texas",
        "city": "ennis"
      }
    ]
  },
  {
    "id": "f_5874f2257d65",
    "slug": "edwards-construction-kilgore-liquid-waste-processing-fac",
    "name": "EDWARDS CONSTRUCTION KILGORE LIQUID WASTE PROCESSING FAC",
    "type": "landfill",
    "address": "2821 SH HWY 42 N KILGORE TX 75662",
    "lat": 32.41,
    "lng": -94.87,
    "website": null,
    "osm_url": null,
    "appears_in": [
      {
        "state": "texas",
        "city": "n-kilgore"
      }
    ]
  },
  {
    "id": "f_5fd509978a36",
    "slug": "el-centro-landfill",
    "name": "EL CENTRO LANDFILL",
    "type": "landfill",
    "address": "3189 COUNTY ROAD 69 ROBSTOWN TX 78380",
    "lat": 27.79,
    "lng": -97.62,
    "website": null,
    "osm_url": null,
    "appears_in": [
      {
        "state": "texas",
        "city": "robstown"
      }
    ]
  },
  {
    "id": "f_0e091fa64b66",
    "slug": "fannin-county-transfer-station",
    "name": "FANNIN COUNTY TRANSFER STATION",
    "type": "transfer_station",
    "address": "2024 FM 87 BONHAM TX 75418",
    "lat": 33.59,
    "lng": -96.23,
    "website": null,
    "osm_url": null,
    "appears_in": [
      {
        "state": "texas",
        "city": "bonham"
      }
    ]
  },
  {
    "id": "f_0e4d2a60dc62",
    "slug": "fort-cavazos-landfill",
    "name": "FORT CAVAZOS LANDFILL",
    "type": "landfill",
    "address": "4255 TURKEY RUN RD BLDG 56134 FORT CAVAZOS TX 76544",
    "lat": 31.16,
    "lng": -97.83,
    "website": null,
    "osm_url": null,
    "appears_in": [
      {
        "state": "texas",
        "city": "fort-cavazos"
      }
    ]
  },
  {
    "id": "f_1c33d9e43317",
    "slug": "fort-clark-springs-association-inc-landfill",
    "name": "FORT CLARK SPRINGS ASSOCIATION INC LANDFILL",
    "type": "landfill",
    "address": "1689 HWY 90 BRACKETTVILLE BRACKETTVILLE TX 78832",
    "lat": 29.3,
    "lng": -100.42,
    "website": null,
    "osm_url": null,
    "appears_in": [
      {
        "state": "texas",
        "city": "brackettville-brackettville"
      }
    ]
  },
  {
    "id": "f_f03b23ada5fe",
    "slug": "fort-hood-biotreatment-facility",
    "name": "FORT HOOD BIOTREATMENT FACILITY",
    "type": "landfill",
    "address": "700 N 37TH ST BLDG 1955 FORT CAVAZOS TX 76544",
    "lat": 31.15,
    "lng": -97.76,
    "website": null,
    "osm_url": null,
    "appears_in": [
      {
        "state": "texas",
        "city": "fort-cavazos"
      }
    ]
  },
  {
    "id": "f_c37fe3a18055",
    "slug": "galveston-county-landfill-tx-lp",
    "name": "GALVESTON COUNTY LANDFILL TX LP",
    "type": "landfill",
    "address": "3935 AVENUE A ALTA LOMA TX 77510",
    "lat": 29.39,
    "lng": -95.05,
    "website": null,
    "osm_url": null,
    "appears_in": [
      {
        "state": "texas",
        "city": "avenue-a-alta-loma"
      }
    ]
  },
  {
    "id": "f_21ffeac5e1f9",
    "slug": "galveston-rng-facility",
    "name": "GALVESTON RNG FACILITY",
    "type": "landfill",
    "address": "3925 AVENUE A ALTA LOMA TX 77510",
    "lat": 29.38,
    "lng": -95.06,
    "website": null,
    "osm_url": null,
    "appears_in": [
      {
        "state": "texas",
        "city": "avenue-a-alta-loma"
      }
    ]
  },
  {
    "id": "f_99b60fc1c128",
    "slug": "goodwill-donation-center",
    "name": "Goodwill Donation Center",
    "type": "recycling",
    "address": "1214 West 43rd Street Houston TX",
    "lat": 29.8291659,
    "lng": -95.4304555,
    "website": null,
    "osm_url": null,
    "appears_in": [
      {
        "state": "texas",
        "city": "street-houston"
      }
    ]
  },
  {
    "id": "f_effbd939bf28",
    "slug": "goodwill-donation-center",
    "name": "Goodwill Donation Center",
    "type": "recycling",
    "address": "1214 West 43rd Street Houston TX",
    "lat": 29.8291659,
    "lng": -95.4304555,
    "website": null,
    "osm_url": "https://www.openstreetmap.org/node/3768401994",
    "appears_in": [
      {
        "state": "texas",
        "city": "street-houston"
      }
    ]
  },
  {
    "id": "f_cf366ae19b9e",
    "slug": "green-and-gone-north-texas",
    "name": "GREEN AND GONE NORTH TEXAS",
    "type": "landfill",
    "address": "2588 E LONG AVE STE 200 FORT WORTH TX 76137",
    "lat": 32.81,
    "lng": -97.31,
    "website": null,
    "osm_url": null,
    "appears_in": [
      {
        "state": "texas",
        "city": "fort-worth"
      }
    ]
  },
  {
    "id": "f_b3b853eea193",
    "slug": "greenwood-farms-landfill",
    "name": "GREENWOOD FARMS LANDFILL",
    "type": "landfill",
    "address": "SS FM 2767 AT 4.8 MI E OF LOOP 323 TYLER TX 75708",
    "lat": 32.37,
    "lng": -95.19,
    "website": null,
    "osm_url": null,
    "appears_in": [
      {
        "state": "texas",
        "city": "tyler"
      }
    ]
  },
  {
    "id": "f_f0b3c1979733",
    "slug": "greenwood-farms-lf-gtf",
    "name": "GREENWOOD FARMS LF GTF",
    "type": "landfill",
    "address": "SS FM 2767 AT 4.8 MI E OF LOOP 323 TYLER TX 75708",
    "lat": 32.37,
    "lng": -95.19,
    "website": null,
    "osm_url": null,
    "appears_in": [
      {
        "state": "texas",
        "city": "tyler"
      }
    ]
  },
  {
    "id": "f_74f820a2d6d2",
    "slug": "gulley-hurst-llc",
    "name": "GULLEY-HURST LLC",
    "type": "landfill",
    "address": "1435 COUNTY ROAD 26 CORPUS CHRISTI TEXAS 78415 CORPUS CHRISTI TX 78413",
    "lat": 27.71,
    "lng": -97.49,
    "website": null,
    "osm_url": null,
    "appears_in": [
      {
        "state": "texas",
        "city": "corpus-christi"
      }
    ]
  },
  {
    "id": "f_8466ed444872",
    "slug": "hardin-county-landfill",
    "name": "HARDIN COUNTY LANDFILL",
    "type": "landfill",
    "address": "2525 FM 770 RD KOUNTZE TX 77625",
    "lat": 30.34,
    "lng": -94.36,
    "website": null,
    "osm_url": null,
    "appears_in": [
      {
        "state": "texas",
        "city": "rd-kountze"
      }
    ]
  },
  {
    "id": "f_0ceae46b674e",
    "slug": "harrington-environmental-liquid-transfer-station",
    "name": "HARRINGTON ENVIRONMENTAL LIQUID TRANSFER STATION",
    "type": "transfer_station",
    "address": "6321 W FM 4 GODLEY TX 76044",
    "lat": 32.34,
    "lng": -97.35,
    "website": null,
    "osm_url": null,
    "appears_in": [
      {
        "state": "texas",
        "city": "godley"
      }
    ]
  },
  {
    "id": "f_6ee0d96cd452",
    "slug": "houston-northwest-transfer-station-facility",
    "name": "HOUSTON NORTHWEST TRANSFER STATION FACILITY",
    "type": "transfer_station",
    "address": "NW TS  SW OF SOMMER MEYER ROAD  200 FEET SW OF US HIGHWAY 290 HOUSTON TX 77041",
    "lat": 29.86,
    "lng": -95.54,
    "website": null,
    "osm_url": null,
    "appears_in": [
      {
        "state": "texas",
        "city": "houston"
      }
    ]
  },
  {
    "id": "f_7ef5cd6fd611",
    "slug": "houston-southwest-transfer-station-facility",
    "name": "HOUSTON SOUTHWEST TRANSFER STATION FACILITY",
    "type": "transfer_station",
    "address": "SW TS  N OF WESTPARK DRIVE  S OF US HIGHWAY 59  E OF FOUNTAIN VIEW HOUSTON TX 77057",
    "lat": 29.73,
    "lng": -95.47,
    "website": null,
    "osm_url": null,
    "appears_in": [
      {
        "state": "texas",
        "city": "e-of-fountain-view-houston"
      }
    ]
  },
  {
    "id": "f_3976cd18726d",
    "slug": "inmar-rx-solutions",
    "name": "INMAR RX SOLUTIONS",
    "type": "landfill",
    "address": "3845 GRAND LAKES WAY STE 125 GRAND PRAIRIE TX 75050",
    "lat": 32.76,
    "lng": -96.95,
    "website": null,
    "osm_url": null,
    "appears_in": [
      {
        "state": "texas",
        "city": "grand-prairie"
      }
    ]
  },
  {
    "id": "f_35a0ffa091c6",
    "slug": "itasca-landfill",
    "name": "ITASCA LANDFILL",
    "type": "landfill",
    "address": "2559 FM 66 ITASCA TX 76055",
    "lat": 32.2,
    "lng": -97.11,
    "website": null,
    "osm_url": null,
    "appears_in": [
      {
        "state": "texas",
        "city": "itasca"
      }
    ]
  },
  {
    "id": "f_d22e976e8d49",
    "slug": "j-v-dirt-loam",
    "name": "J-V DIRT + LOAM",
    "type": "landfill",
    "address": "3600 N FM 973 AUSTIN TX 78725",
    "lat": 30.27,
    "lng": -97.73,
    "website": null,
    "osm_url": null,
    "appears_in": [
      {
        "state": "texas",
        "city": "austin"
      }
    ]
  },
  {
    "id": "f_45ef513dc968",
    "slug": "jackson-county-transfer-station-facility",
    "name": "JACKSON COUNTY TRANSFER STATION FACILITY",
    "type": "transfer_station",
    "address": "205 CR 4141 EDNA TX 77957",
    "lat": 28.98,
    "lng": -96.57,
    "website": null,
    "osm_url": null,
    "appears_in": [
      {
        "state": "texas",
        "city": "edna"
      }
    ]
  },
  {
    "id": "f_ea6556cc808c",
    "slug": "killeen-transfer-station",
    "name": "KILLEEN TRANSFER STATION",
    "type": "transfer_station",
    "address": "12200 STATE HWY 195 KILLEEN TX 76542 KILLEEN TX 76542",
    "lat": 31.02,
    "lng": -97.75,
    "website": null,
    "osm_url": null,
    "appears_in": [
      {
        "state": "texas",
        "city": "killeen"
      }
    ]
  },
  {
    "id": "f_60eae84f37f4",
    "slug": "liquid-environmental-solutions-of-texas-lp-waste-processing-facility",
    "name": "LIQUID ENVIRONMENTAL SOLUTIONS OF TEXAS  LP WASTE PROCESSING FACILITY",
    "type": "landfill",
    "address": "10360 W US HIGHWAY 90 SAN ANTONIO TX 78245",
    "lat": 29.38,
    "lng": -98.7,
    "website": null,
    "osm_url": null,
    "appears_in": [
      {
        "state": "texas",
        "city": "san-antonio"
      }
    ]
  },
  {
    "id": "f_a9f1135f0373",
    "slug": "liquitek-arlington-liquid-waste-proc-fac",
    "name": "LIQUITEK ARLINGTON LIQUID WASTE PROC FAC",
    "type": "landfill",
    "address": "408 113TH ST ARLINGTON TX 76011",
    "lat": 32.74,
    "lng": -97.04,
    "website": null,
    "osm_url": null,
    "appears_in": [
      {
        "state": "texas",
        "city": "st-arlington"
      }
    ]
  },
  {
    "id": "f_7cc1c60dde22",
    "slug": "littlefield-municipal-landfill",
    "name": "LITTLEFIELD MUNICIPAL LANDFILL",
    "type": "landfill",
    "address": "2182 FM 2197 LITTLEFIELD TX 79339",
    "lat": 33.98,
    "lng": -102.24,
    "website": null,
    "osm_url": null,
    "appears_in": [
      {
        "state": "texas",
        "city": "littlefield"
      }
    ]
  },
  {
    "id": "f_a93a089e18a3",
    "slug": "mason-east-msw-landfill",
    "name": "MASON EAST MSW LANDFILL",
    "type": "landfill",
    "address": "2107 E SH 29 MASON TX 76856",
    "lat": 30.74,
    "lng": -99.21,
    "website": null,
    "osm_url": null,
    "appears_in": [
      {
        "state": "texas",
        "city": "mason"
      }
    ]
  },
  {
    "id": "f_a9d6ffcf5fce",
    "slug": "matagorda-county-transfer-station",
    "name": "MATAGORDA COUNTY TRANSFER STATION",
    "type": "transfer_station",
    "address": "679 COUNTY ROAD 147 BAY CITY TX 77414",
    "lat": 28.75,
    "lng": -95.94,
    "website": null,
    "osm_url": null,
    "appears_in": [
      {
        "state": "texas",
        "city": "bay-city"
      }
    ]
  },
  {
    "id": "f_749b74cc3e62",
    "slug": "maverick-county-el-indio-msw-landfill",
    "name": "MAVERICK COUNTY EL INDIO MSW LANDFILL",
    "type": "landfill",
    "address": "16179 FM 1021 EL INDIO TX 78860",
    "lat": 28.54,
    "lng": -100.32,
    "website": null,
    "osm_url": null,
    "appears_in": [
      {
        "state": "texas",
        "city": "el-indio"
      }
    ]
  },
  {
    "id": "f_19373388d51c",
    "slug": "mexia-landfill",
    "name": "MEXIA LANDFILL",
    "type": "landfill",
    "address": "3048 LCR 460 MEXIA TX 76667",
    "lat": 31.61,
    "lng": -96.5,
    "website": null,
    "osm_url": null,
    "appears_in": [
      {
        "state": "texas",
        "city": "mexia"
      }
    ]
  },
  {
    "id": "f_e4a640478f3b",
    "slug": "mid-america-contractors-llc",
    "name": "MID AMERICA CONTRACTORS LLC",
    "type": "landfill",
    "address": "3995 FM 1485 RD CONROE TX 77306",
    "lat": 30.32,
    "lng": -95.38,
    "website": null,
    "osm_url": null,
    "appears_in": [
      {
        "state": "texas",
        "city": "rd-conroe"
      }
    ]
  },
  {
    "id": "f_eb25fe67c5cb",
    "slug": "morton-municipal-solid-waste-landfill",
    "name": "MORTON MUNICIPAL SOLID WASTE LANDFILL",
    "type": "landfill",
    "address": "1000 FEET E OF 8TH ST  3121 FEET N OF FM 1780 .25 MILE OF MORTON MORTON TX",
    "lat": 33.74,
    "lng": -102.74,
    "website": null,
    "osm_url": null,
    "appears_in": [
      {
        "state": "texas",
        "city": "mile-of-morton-morton"
      }
    ]
  },
  {
    "id": "f_7dd0c8a23b23",
    "slug": "municipal-solid-waste-transfer-station-burnet-county",
    "name": "MUNICIPAL SOLID WASTE TRANSFER STATION BURNET COUNTY",
    "type": "transfer_station",
    "address": "2411 RR 963 BURNET TX 78611",
    "lat": 30.79,
    "lng": -98.21,
    "website": null,
    "osm_url": null,
    "appears_in": [
      {
        "state": "texas",
        "city": "burnet"
      }
    ]
  },
  {
    "id": "f_645791d15fd6",
    "slug": "new-boston-landfill",
    "name": "NEW BOSTON LANDFILL",
    "type": "landfill",
    "address": "1030 W US HIGHWAY 82 NEW BOSTON TX 75570",
    "lat": 33.47,
    "lng": -94.44,
    "website": null,
    "osm_url": null,
    "appears_in": [
      {
        "state": "texas",
        "city": "new-boston"
      }
    ]
  },
  {
    "id": "f_3adabbfc9e49",
    "slug": "new-earth",
    "name": "NEW EARTH",
    "type": "landfill",
    "address": "7800 E IH 10 SAN ANTONIO TX 78219",
    "lat": 29.45,
    "lng": -98.34,
    "website": null,
    "osm_url": null,
    "appears_in": [
      {
        "state": "texas",
        "city": "san-antonio"
      }
    ]
  },
  {
    "id": "f_23a25f871bcd",
    "slug": "new-earth-grand-parkway-composting",
    "name": "NEW EARTH GRAND PARKWAY COMPOSTING",
    "type": "recycling",
    "address": "6205 FM 2855 BROOKSHIRE TX 77423",
    "lat": 29.86,
    "lng": -95.89,
    "website": null,
    "osm_url": null,
    "appears_in": [
      {
        "state": "texas",
        "city": "brookshire"
      }
    ]
  },
  {
    "id": "f_b680f6846ac7",
    "slug": "new-earth-inc",
    "name": "NEW EARTH INC",
    "type": "landfill",
    "address": "12286 HIGHWAY 105 E CONROE TX 77306",
    "lat": 30.33,
    "lng": -95.39,
    "website": null,
    "osm_url": null,
    "appears_in": [
      {
        "state": "texas",
        "city": "e-conroe"
      }
    ]
  },
  {
    "id": "f_fbf3d7dcd2a2",
    "slug": "newton-county-regional-solid-waste-complex",
    "name": "NEWTON COUNTY REGIONAL SOLID WASTE COMPLEX",
    "type": "landfill",
    "address": "2372 COUNTY RD 3870 DEWEYVILLE TX 77614 DEWEYVILLE TX 77626",
    "lat": 30.34,
    "lng": -93.86,
    "website": null,
    "osm_url": null,
    "appears_in": [
      {
        "state": "texas",
        "city": "deweyville"
      }
    ]
  },
  {
    "id": "f_60618614b1b7",
    "slug": "palestine-transfer-station",
    "name": "PALESTINE TRANSFER STATION",
    "type": "transfer_station",
    "address": "517 ACR 3694 PALESTINE TX 75801",
    "lat": 31.8,
    "lng": -95.61,
    "website": null,
    "osm_url": null,
    "appears_in": [
      {
        "state": "texas",
        "city": "palestine"
      }
    ]
  },
  {
    "id": "f_129b3638e2e5",
    "slug": "perryton-municipal-solid-waste-landfill",
    "name": "PERRYTON MUNICIPAL SOLID WASTE LANDFILL",
    "type": "landfill",
    "address": "1101 NE 14TH PERRYTON TX 79070",
    "lat": 36.42,
    "lng": -100.79,
    "website": null,
    "osm_url": null,
    "appears_in": [
      {
        "state": "texas",
        "city": "perryton"
      }
    ]
  },
  {
    "id": "f_92d5a79721fb",
    "slug": "pleasant-oaks-landfill",
    "name": "PLEASANT OAKS LANDFILL",
    "type": "landfill",
    "address": "3031 FARM ROAD 3417 MT PLEASANT TX 75455",
    "lat": 33.12,
    "lng": -95.01,
    "website": null,
    "osm_url": null,
    "appears_in": [
      {
        "state": "texas",
        "city": "mt-pleasant"
      }
    ]
  },
  {
    "id": "f_32e4e01fadfd",
    "slug": "polk-county-landfill",
    "name": "POLK COUNTY LANDFILL",
    "type": "landfill",
    "address": "3477 FM 942 W LEGGETT TX 77350",
    "lat": 30.83,
    "lng": -94.92,
    "website": null,
    "osm_url": null,
    "appears_in": [
      {
        "state": "texas",
        "city": "w-leggett"
      }
    ]
  },
  {
    "id": "f_f564765ee4e0",
    "slug": "ponderosa-regional-landfill",
    "name": "PONDEROSA REGIONAL LANDFILL",
    "type": "landfill",
    "address": "10705 STATE HIGHWAY 359 LAREDO TX 78043",
    "lat": 27.48,
    "lng": -99.26,
    "website": null,
    "osm_url": null,
    "appears_in": [
      {
        "state": "texas",
        "city": "laredo"
      }
    ]
  },
  {
    "id": "f_636318c14411",
    "slug": "post-oak-msw-landfill",
    "name": "POST OAK MSW LANDFILL",
    "type": "landfill",
    "address": "7787 FM RD 1150 SEGUIN TX 78155",
    "lat": 29.61,
    "lng": -97.72,
    "website": null,
    "osm_url": null,
    "appears_in": [
      {
        "state": "texas",
        "city": "seguin"
      }
    ]
  },
  {
    "id": "f_7c00ff24255f",
    "slug": "pro-star-waste",
    "name": "PRO STAR WASTE",
    "type": "landfill",
    "address": "7118 US HIGHWAY 59 S GOODRICH TX 77335",
    "lat": 30.49,
    "lng": -94.94,
    "website": null,
    "osm_url": null,
    "appears_in": [
      {
        "state": "texas",
        "city": "s-goodrich"
      }
    ]
  },
  {
    "id": "f_5d5541b4f861",
    "slug": "r-and-j-recycling-and-disposal-transfer-station",
    "name": "R&J RECYCLING AND DISPOSAL TRANSFER STATION",
    "type": "transfer_station",
    "address": "FACILITY LOCATED ON FM 2468 APPROX 830 FT NW OF THE INTERSEC OF FM 2468 AND FM 699 IN SHELBY CO TX NEAR THE CITY OF CENTER CENTER TX 75935",
    "lat": 31.81,
    "lng": -94.18,
    "website": null,
    "osm_url": null,
    "appears_in": [
      {
        "state": "texas",
        "city": "in-shelby-co"
      }
    ]
  },
  {
    "id": "f_aeb587ce3a68",
    "slug": "regional-landfill-of-brownwood",
    "name": "REGIONAL LANDFILL OF BROWNWOOD",
    "type": "landfill",
    "address": "6800 FM 45 S BROWNWOOD TX 76801",
    "lat": 31.65,
    "lng": -98.96,
    "website": null,
    "osm_url": null,
    "appears_in": [
      {
        "state": "texas",
        "city": "s-brownwood"
      }
    ]
  },
  {
    "id": "f_2f1981115a9a",
    "slug": "republic-maloy-landfill",
    "name": "REPUBLIC MALOY LANDFILL",
    "type": "landfill",
    "address": "2811 FM 1568 CAMPBELL TX 75422",
    "lat": 33.18,
    "lng": -95.87,
    "website": null,
    "osm_url": null,
    "appears_in": [
      {
        "state": "texas",
        "city": "campbell"
      }
    ]
  },
  {
    "id": "f_028f09bcaeb8",
    "slug": "republic-services",
    "name": "Republic Services",
    "type": "transfer_station",
    "address": "6425 Highway 347 Beaumont TX 77705",
    "lat": 30.0182402,
    "lng": -94.0428522,
    "website": null,
    "osm_url": "https://www.openstreetmap.org/way/773584290",
    "appears_in": [
      {
        "state": "texas",
        "city": "beaumont"
      }
    ]
  },
  {
    "id": "f_8fafcbad51f7",
    "slug": "republic-services",
    "name": "Republic Services",
    "type": "transfer_station",
    "address": "6425 Highway 347 Beaumont TX 77705",
    "lat": 30.0182402,
    "lng": -94.0428522,
    "website": null,
    "osm_url": null,
    "appears_in": [
      {
        "state": "texas",
        "city": "beaumont"
      }
    ]
  },
  {
    "id": "f_334d4a7db2dc",
    "slug": "royal-oaks-landfill",
    "name": "ROYAL OAKS  LANDFILL",
    "type": "landfill",
    "address": "608 CR 4102 JACKSONVILLE TX 75766",
    "lat": 32,
    "lng": -95.27,
    "website": null,
    "osm_url": null,
    "appears_in": [
      {
        "state": "texas",
        "city": "jacksonville"
      }
    ]
  },
  {
    "id": "f_18e0149dca95",
    "slug": "seabreeze-environmental-landfill",
    "name": "SEABREEZE ENVIRONMENTAL LANDFILL",
    "type": "landfill",
    "address": "10310 FM 523 ANGLETON TX 77515",
    "lat": 29.04,
    "lng": -95.32,
    "website": null,
    "osm_url": null,
    "appears_in": [
      {
        "state": "texas",
        "city": "angleton"
      }
    ]
  },
  {
    "id": "f_2ff6e67d9fbd",
    "slug": "security-lfgte-facility",
    "name": "SECURITY LFGTE FACILITY",
    "type": "landfill",
    "address": "19248 HIGHWAY 105 CLEVELAND TX 77328",
    "lat": 30.32,
    "lng": -95.27,
    "website": null,
    "osm_url": null,
    "appears_in": [
      {
        "state": "texas",
        "city": "cleveland"
      }
    ]
  },
  {
    "id": "f_6dfab17dbbaa",
    "slug": "security-recycling-and-disposal-facility",
    "name": "SECURITY RECYCLING AND DISPOSAL FACILITY",
    "type": "recycling",
    "address": "19248 HIGHWAY 105 CLEVELAND TX 77328",
    "lat": 30.32,
    "lng": -95.27,
    "website": null,
    "osm_url": null,
    "appears_in": [
      {
        "state": "texas",
        "city": "cleveland"
      }
    ]
  },
  {
    "id": "f_9e079f4c073f",
    "slug": "security-renewable-natural-gas-facility",
    "name": "SECURITY RENEWABLE NATURAL GAS FACILITY",
    "type": "landfill",
    "address": "19248 HIGHWAY 105 CLEVELAND TX 77328",
    "lat": 30.32,
    "lng": -95.27,
    "website": null,
    "osm_url": null,
    "appears_in": [
      {
        "state": "texas",
        "city": "cleveland"
      }
    ]
  },
  {
    "id": "f_eb5408782fe3",
    "slug": "shady-trail-warehouse",
    "name": "SHADY TRAIL WAREHOUSE",
    "type": "landfill",
    "address": "10465 SHADY TRL DALLAS TX 75220",
    "lat": 32.87,
    "lng": -96.89,
    "website": null,
    "osm_url": null,
    "appears_in": [
      {
        "state": "texas",
        "city": "shady-trl-dallas"
      }
    ]
  },
  {
    "id": "f_040fdcf3ec83",
    "slug": "somerville-county-transfer-station",
    "name": "SOMERVILLE COUNTY TRANSFER STATION",
    "type": "transfer_station",
    "address": "1827 N FM 56 GLEN ROSE TX 76043",
    "lat": 32.43,
    "lng": -97.53,
    "website": null,
    "osm_url": null,
    "appears_in": [
      {
        "state": "texas",
        "city": "glen-rose"
      }
    ]
  },
  {
    "id": "f_0dd69592f707",
    "slug": "southside-lions-park",
    "name": "SOUTHSIDE LIONS PARK",
    "type": "landfill",
    "address": "3100 HIAWATHA SAN ANTONIO TX 78210",
    "lat": 28.39,
    "lng": -98.44,
    "website": null,
    "osm_url": null,
    "appears_in": [
      {
        "state": "texas",
        "city": "hiawatha-san-antonio"
      }
    ]
  },
  {
    "id": "f_290d72fe9c07",
    "slug": "southwaste-disposal",
    "name": "SouthWaste Disposal",
    "type": "transfer_station",
    "address": "1375 Creekview San Antonio TX",
    "lat": 29.4418252,
    "lng": -98.419088,
    "website": "https://southwaste.com/austin-san-antonio/",
    "osm_url": null,
    "appears_in": [
      {
        "state": "texas",
        "city": "creekview-san-antonio"
      }
    ]
  },
  {
    "id": "f_4bdeef1dc029",
    "slug": "southwaste-disposal",
    "name": "SouthWaste Disposal",
    "type": "transfer_station",
    "address": "1375 Creekview San Antonio TX",
    "lat": 29.4418252,
    "lng": -98.419088,
    "website": "https://southwaste.com/austin-san-antonio/",
    "osm_url": "https://www.openstreetmap.org/way/1328596956",
    "appears_in": [
      {
        "state": "texas",
        "city": "creekview-san-antonio"
      }
    ]
  },
  {
    "id": "f_79dd2e4b74cf",
    "slug": "sprint-montgomery-landfill",
    "name": "SPRINT MONTGOMERY LANDFILL",
    "type": "landfill",
    "address": "17851 HIGHWAY 105 E CONROE TX 77306",
    "lat": 30.35,
    "lng": -95.29,
    "website": null,
    "osm_url": null,
    "appears_in": [
      {
        "state": "texas",
        "city": "e-conroe"
      }
    ]
  },
  {
    "id": "f_d8aa87003051",
    "slug": "sprint-recycling-center-port-arthur",
    "name": "SPRINT RECYCLING CENTER - PORT ARTHUR",
    "type": "recycling",
    "address": "1000 S BUSINESS PARK PORT ARTHUR TX 77640",
    "lat": 29.92,
    "lng": -94.03,
    "website": null,
    "osm_url": null,
    "appears_in": [
      {
        "state": "texas",
        "city": "s-business-park-port-arthur"
      }
    ]
  },
  {
    "id": "f_a29660bd01d7",
    "slug": "stericycle-austin-autoclave",
    "name": "STERICYCLE AUSTIN AUTOCLAVE",
    "type": "landfill",
    "address": "2607 HIGHWAY 21 W DALE TX 78616",
    "lat": 30.06,
    "lng": -97.61,
    "website": null,
    "osm_url": null,
    "appears_in": [
      {
        "state": "texas",
        "city": "w-dale"
      }
    ]
  },
  {
    "id": "f_0c52c6af9600",
    "slug": "stericycle-fresno",
    "name": "STERICYCLE FRESNO",
    "type": "landfill",
    "address": "2725C FM 521 RD FRESNO TX 77545",
    "lat": 29.55,
    "lng": -95.44,
    "website": null,
    "osm_url": null,
    "appears_in": [
      {
        "state": "texas",
        "city": "rd-fresno"
      }
    ]
  },
  {
    "id": "f_bd7a8e0acce6",
    "slug": "stericycle-lubbock",
    "name": "STERICYCLE LUBBOCK",
    "type": "landfill",
    "address": "2901 NE LOOP 289 LUBBOCK TX 79403",
    "lat": 33.61,
    "lng": -101.8,
    "website": null,
    "osm_url": null,
    "appears_in": [
      {
        "state": "texas",
        "city": "lubbock"
      }
    ]
  },
  {
    "id": "f_15924c10e657",
    "slug": "stericycle-san-antonio",
    "name": "STERICYCLE SAN ANTONIO",
    "type": "landfill",
    "address": "6105 US HIGHWAY 87 E SAN ANTONIO TX 78222",
    "lat": 29.28,
    "lng": -98.69,
    "website": null,
    "osm_url": null,
    "appears_in": [
      {
        "state": "texas",
        "city": "e-san-antonio"
      }
    ]
  },
  {
    "id": "f_44df9b6b81b8",
    "slug": "stouts-creek-compost",
    "name": "STOUTS CREEK COMPOST",
    "type": "recycling",
    "address": "1000 COUNTY ROAD 3372 PICKTON TX 75471",
    "lat": 33.12,
    "lng": -95.37,
    "website": null,
    "osm_url": null,
    "appears_in": [
      {
        "state": "texas",
        "city": "pickton"
      }
    ]
  },
  {
    "id": "f_af0f3ac43586",
    "slug": "taswa-solid-waste-disposal-and-recycling-facility",
    "name": "TASWA SOLID WASTE DISPOSAL AND RECYCLING FACILITY",
    "type": "recycling",
    "address": "25090 STATE HIGHWAY 56 WHITESBORO TX 76273",
    "lat": 33.72,
    "lng": -96.91,
    "website": null,
    "osm_url": null,
    "appears_in": [
      {
        "state": "texas",
        "city": "whitesboro"
      }
    ]
  },
  {
    "id": "f_d046ff20bb37",
    "slug": "terrabella-environmental-services",
    "name": "TERRABELLA ENVIRONMENTAL SERVICES",
    "type": "landfill",
    "address": "5376 FM 1784 PLEASANTON TX 78064",
    "lat": 29.08,
    "lng": -98.42,
    "website": null,
    "osm_url": null,
    "appears_in": [
      {
        "state": "texas",
        "city": "pleasanton"
      }
    ]
  },
  {
    "id": "f_1f453c748718",
    "slug": "tessman-road-landfill",
    "name": "TESSMAN ROAD LANDFILL",
    "type": "landfill",
    "address": "7000 E IH 10 SAN ANTONIO TX 78219",
    "lat": 29.43,
    "lng": -98.34,
    "website": null,
    "osm_url": null,
    "appears_in": [
      {
        "state": "texas",
        "city": "san-antonio"
      }
    ]
  },
  {
    "id": "f_a2faf9e50d7b",
    "slug": "tessman-road-rng-plant",
    "name": "TESSMAN ROAD RNG PLANT",
    "type": "landfill",
    "address": "7000 E IH 10 SAN ANTONIO TX 78219",
    "lat": 29.43,
    "lng": -98.34,
    "website": null,
    "osm_url": null,
    "appears_in": [
      {
        "state": "texas",
        "city": "san-antonio"
      }
    ]
  },
  {
    "id": "f_5d0df7933508",
    "slug": "texas-department-of-criminal-justice-beto-i-transfer-station-facility",
    "name": "TEXAS DEPARTMENT OF CRIMINAL JUSTICE BETO I TRANSFER STATION FACILITY",
    "type": "transfer_station",
    "address": "1391 FM 3328 TENNESSEE COLONY TX 75880",
    "lat": 31.74,
    "lng": -95.82,
    "website": null,
    "osm_url": null,
    "appears_in": [
      {
        "state": "texas",
        "city": "tennessee-colony"
      }
    ]
  },
  {
    "id": "f_8c96ec3bb041",
    "slug": "texas-department-of-criminal-justice-coffield-transfer-station-facility",
    "name": "TEXAS DEPARTMENT OF CRIMINAL JUSTICE COFFIELD TRANSFER STATION FACILITY",
    "type": "transfer_station",
    "address": "2661 FM 5054 TENNESSEE COLONY TX 75884",
    "lat": 31.8,
    "lng": -95.66,
    "website": null,
    "osm_url": null,
    "appears_in": [
      {
        "state": "texas",
        "city": "tennessee-colony"
      }
    ]
  },
  {
    "id": "f_5427a2f4719d",
    "slug": "texas-disposal-systems-landfill",
    "name": "TEXAS DISPOSAL SYSTEMS LANDFILL",
    "type": "landfill",
    "address": "3606 FM 1327 BUDA TX 78610",
    "lat": 30.11,
    "lng": -97.76,
    "website": null,
    "osm_url": null,
    "appears_in": [
      {
        "state": "texas",
        "city": "buda"
      }
    ]
  },
  {
    "id": "f_a326bb50b580",
    "slug": "travis-county-landfill",
    "name": "Travis County Landfill",
    "type": "landfill",
    "address": "9600 FM 812 Austin TX 78719",
    "lat": 30.1622743,
    "lng": -97.6710656,
    "website": "https://www.wasteconnections.com/travis-county-landfill/",
    "osm_url": "https://www.openstreetmap.org/way/1185613730",
    "appears_in": [
      {
        "state": "texas",
        "city": "austin"
      }
    ]
  },
  {
    "id": "f_c58423d1fb2f",
    "slug": "travis-county-landfill",
    "name": "Travis County Landfill",
    "type": "landfill",
    "address": "9600 FM 812 Austin TX 78719",
    "lat": 30.1622743,
    "lng": -97.6710656,
    "website": "https://www.wasteconnections.com/travis-county-landfill/",
    "osm_url": null,
    "appears_in": [
      {
        "state": "texas",
        "city": "austin"
      }
    ]
  },
  {
    "id": "f_0ff3a5a5bd4c",
    "slug": "travis-county-landfill",
    "name": "TRAVIS COUNTY LANDFILL",
    "type": "landfill",
    "address": "9600 FM 812 AUSTIN TX 78719",
    "lat": 30.17,
    "lng": -97.68,
    "website": null,
    "osm_url": null,
    "appears_in": [
      {
        "state": "texas",
        "city": "austin"
      }
    ]
  },
  {
    "id": "f_509a50df9931",
    "slug": "travis-county-transfer-station",
    "name": "TRAVIS COUNTY TRANSFER STATION",
    "type": "transfer_station",
    "address": "4001 RANCH RD 620 AUSTIN TX 78767",
    "lat": 30.32,
    "lng": -97.77,
    "website": null,
    "osm_url": null,
    "appears_in": [
      {
        "state": "texas",
        "city": "austin"
      }
    ]
  },
  {
    "id": "f_97b4d7b18d6e",
    "slug": "tri-state-recycling-texline-transfer",
    "name": "TRI-STATE RECYCLING TEXLINE TRANSFER",
    "type": "transfer_station",
    "address": "HWY 296 E TEXLINE TX 79087",
    "lat": 36.38,
    "lng": -103.03,
    "website": null,
    "osm_url": null,
    "appears_in": [
      {
        "state": "texas",
        "city": "e-texline"
      }
    ]
  },
  {
    "id": "f_fd5f76cd2ed3",
    "slug": "turkey-creek-landfill",
    "name": "TURKEY CREEK LANDFILL",
    "type": "landfill",
    "address": "9100 S INTERSTATE 35 W ALVARADO TX 76009",
    "lat": 32.36,
    "lng": -97.2,
    "website": null,
    "osm_url": null,
    "appears_in": [
      {
        "state": "texas",
        "city": "w-alvarado"
      }
    ]
  },
  {
    "id": "f_57f89c53f1b0",
    "slug": "turkey-creek-landfill-gas-treatment-facility",
    "name": "TURKEY CREEK LANDFILL GAS TREATMENT FACILITY",
    "type": "landfill",
    "address": "9100 S INTERSTATE 35 W ALVARADO TX 76009",
    "lat": 32.36,
    "lng": -97.2,
    "website": null,
    "osm_url": null,
    "appears_in": [
      {
        "state": "texas",
        "city": "w-alvarado"
      }
    ]
  },
  {
    "id": "f_3fcb4dd7fe72",
    "slug": "twin-oaks-landfill",
    "name": "TWIN OAKS LANDFILL",
    "type": "landfill",
    "address": "2690 HIGHWAY 30 ANDERSON TX 77830",
    "lat": 30.6,
    "lng": -96.15,
    "website": null,
    "osm_url": null,
    "appears_in": [
      {
        "state": "texas",
        "city": "anderson"
      }
    ]
  },
  {
    "id": "f_70de6990deff",
    "slug": "two-men-and-a-junk-truck",
    "name": "Two Men and a Junk Truck",
    "type": "transfer_station",
    "address": "20935 US Highway 281 North San Antonio TX 78258",
    "lat": 29.6419451,
    "lng": -98.4556087,
    "website": "https://twomenandajunktruck.com/locations/tx/san-antonio/junk-removal-san-antonio-north",
    "osm_url": null,
    "appears_in": [
      {
        "state": "texas",
        "city": "north-san-antonio"
      }
    ]
  },
  {
    "id": "f_9618346060ab",
    "slug": "two-men-and-a-junk-truck",
    "name": "Two Men and a Junk Truck",
    "type": "transfer_station",
    "address": "20935 US Highway 281 North San Antonio TX 78258",
    "lat": 29.6419451,
    "lng": -98.4556087,
    "website": "https://twomenandajunktruck.com/locations/tx/san-antonio/junk-removal-san-antonio-north",
    "osm_url": "https://www.openstreetmap.org/node/13005797608",
    "appears_in": [
      {
        "state": "texas",
        "city": "north-san-antonio"
      }
    ]
  },
  {
    "id": "f_393ecacf0d69",
    "slug": "tyler-county-transfer-station-facility",
    "name": "TYLER COUNTY TRANSFER STATION FACILITY",
    "type": "transfer_station",
    "address": "1921 CR 1010 WOODVILLE TX 75979",
    "lat": 30.76,
    "lng": -94.46,
    "website": null,
    "osm_url": null,
    "appears_in": [
      {
        "state": "texas",
        "city": "woodville"
      }
    ]
  },
  {
    "id": "f_9b6114168860",
    "slug": "tyler-iron-and-metal",
    "name": "Tyler Iron & Metal",
    "type": "recycling",
    "address": "1630 West Northwest Loop 323 Tyler TX 75702",
    "lat": 32.3859439,
    "lng": -95.3186382,
    "website": null,
    "osm_url": null,
    "appears_in": [
      {
        "state": "texas",
        "city": "tyler"
      }
    ]
  },
  {
    "id": "f_b0611c796bc8",
    "slug": "tyler-iron-and-metal",
    "name": "Tyler Iron & Metal",
    "type": "recycling",
    "address": "1630 West Northwest Loop 323 Tyler TX 75702",
    "lat": 32.3859439,
    "lng": -95.3186382,
    "website": null,
    "osm_url": "https://www.openstreetmap.org/way/802088567",
    "appears_in": [
      {
        "state": "texas",
        "city": "tyler"
      }
    ]
  },
  {
    "id": "f_267661223ed0",
    "slug": "upton-county-landfill",
    "name": "UPTON COUNTY LANDFILL",
    "type": "landfill",
    "address": "1.5 MILES NORTH OF RANKIN ON HWY 349 RANKIN TX 79778",
    "lat": 31.24,
    "lng": -101.95,
    "website": null,
    "osm_url": null,
    "appears_in": [
      {
        "state": "texas",
        "city": "rankin"
      }
    ]
  },
  {
    "id": "f_619ee65458fe",
    "slug": "us-ecology-texas-inc",
    "name": "US ECOLOGY TEXAS INC",
    "type": "landfill",
    "address": "3277 COUNTY ROAD 69 ROBSTOWN TX 78380",
    "lat": 27.73,
    "lng": -97.66,
    "website": null,
    "osm_url": null,
    "appears_in": [
      {
        "state": "texas",
        "city": "robstown"
      }
    ]
  },
  {
    "id": "f_069e5d4519be",
    "slug": "victoria-compost-facility",
    "name": "VICTORIA COMPOST FACILITY",
    "type": "recycling",
    "address": "18545 FM 1686, BLOOMINGTON, TX  77951 BLOOMINGTON TX 77951",
    "lat": 28.69,
    "lng": -96.89,
    "website": null,
    "osm_url": null,
    "appears_in": [
      {
        "state": "texas",
        "city": "bloomington"
      }
    ]
  },
  {
    "id": "f_2d3b0db2c1c8",
    "slug": "victoria-environmental",
    "name": "VICTORIA ENVIRONMENTAL",
    "type": "landfill",
    "address": "6910 US HIGHWAY 59 N VICTORIA TX 77905",
    "lat": 28.79,
    "lng": -96.94,
    "website": null,
    "osm_url": null,
    "appears_in": [
      {
        "state": "texas",
        "city": "n-victoria"
      }
    ]
  },
  {
    "id": "f_5c6c239abd00",
    "slug": "victoria-regional-wastewater-treatment-plant",
    "name": "VICTORIA REGIONAL WASTEWATER TREATMENT PLANT",
    "type": "landfill",
    "address": "923 US HWY 59 SOUTH VICTORIA TX 77905",
    "lat": 28.75,
    "lng": -97.01,
    "website": null,
    "osm_url": null,
    "appears_in": [
      {
        "state": "texas",
        "city": "south-victoria"
      }
    ]
  },
  {
    "id": "f_8ae76ca48c68",
    "slug": "vital-earth-resources-composting-facility",
    "name": "VITAL EARTH RESOURCES COMPOSTING FACILITY",
    "type": "recycling",
    "address": "7940 US HIGHWAY 80 BIG SANDY TX 75755",
    "lat": 32.57,
    "lng": -95.05,
    "website": null,
    "osm_url": null,
    "appears_in": [
      {
        "state": "texas",
        "city": "big-sandy"
      }
    ]
  },
  {
    "id": "f_96909bd75a1e",
    "slug": "washingtion-county-transfer-station",
    "name": "WASHINGTION COUNTY TRANSFER STATION",
    "type": "transfer_station",
    "address": "1709 HIGHWAY 36 N BRENHAM TX 77833 9135 BRENHAM TX 77833",
    "lat": 30.18,
    "lng": -96.42,
    "website": null,
    "osm_url": null,
    "appears_in": [
      {
        "state": "texas",
        "city": "n-brenham"
      }
    ]
  },
  {
    "id": "f_0ddbdad3a7da",
    "slug": "west-texas-regional-disposal-landfill",
    "name": "WEST TEXAS REGIONAL DISPOSAL LANDFILL",
    "type": "landfill",
    "address": "17304 N FM 2528 ABERNATHY TX 79311",
    "lat": 33.81,
    "lng": -101.94,
    "website": null,
    "osm_url": null,
    "appears_in": [
      {
        "state": "texas",
        "city": "abernathy"
      }
    ]
  },
  {
    "id": "f_94cec6b5c4d3",
    "slug": "yoakum-county-landfill",
    "name": "YOAKUM COUNTY LANDFILL",
    "type": "landfill",
    "address": "2050 CR 295 PLAINS TX 79355",
    "lat": 33.09,
    "lng": -102.85,
    "website": null,
    "osm_url": null,
    "appears_in": [
      {
        "state": "texas",
        "city": "plains"
      }
    ]
  },
  {
    "id": "f_97f974e6c57a",
    "slug": "zavala-county-mswf-landfill",
    "name": "ZAVALA COUNTY MSWF LANDFILL",
    "type": "landfill",
    "address": "ADJACENT TO US HWY 57 APPROXIMATELY 1 MILE SW OF INTERSECTION US HWY 57 AND US HWY 83 CRYSTAL CITY TX 78741",
    "lat": 28.94,
    "lng": -99.86,
    "website": null,
    "osm_url": null,
    "appears_in": [
      {
        "state": "texas",
        "city": "crystal-city"
      }
    ]
  }
]