[
  {
    "name": "TRAVIS COUNTY LANDFILL",
    "type": "landfill",
    "address": "9600 FM 812 AUSTIN TX 78719",
    "lat": 30.17,
    "lng": -97.68,
    "website": null,
    "facility_id": "f_0ff3a5a5bd4c",
    "source": "tceq",
    "source_url": null,
    "osm_url": null
  },
  {
    "name": "Austin Wood Recycling",
    "type": "recycling",
    "address": "9201 FM 812 Austin TX 78719",
    "lat": 30.1555498,
    "lng": -97.6873274,
    "website": "https://www.austinwoodrecycling.com/",
    "facility_id": "f_33e2d348d63a",
    "source": "tceq",
    "source_url": null,
    "osm_url": "https://www.openstreetmap.org/way/1185824388"
  },
  {
    "name": "J-V DIRT + LOAM",
    "type": "landfill",
    "address": "3600 N FM 973 AUSTIN TX 78725",
    "lat": 30.27,
    "lng": -97.73,
    "website": null,
    "facility_id": "f_4d9b6eb94222",
    "source": "tceq",
    "source_url": null,
    "osm_url": null
  },
  {
    "name": "TRAVIS COUNTY TRANSFER STATION",
    "type": "transfer_station",
    "address": "4001 RANCH RD 620 AUSTIN TX 78767",
    "lat": 30.32,
    "lng": -97.77,
    "website": null,
    "facility_id": "f_509a50df9931",
    "source": "tceq",
    "source_url": null,
    "osm_url": null
  },
  {
    "name": "TRAVIS COUNTY TRANSFER STATION",
    "type": "transfer_station",
    "address": "4001 RANCH RD 620 AUSTIN TX 78767",
    "lat": 30.32,
    "lng": -97.77,
    "website": null,
    "facility_id": "f_6139b9bfdbbe",
    "source": "tceq",
    "source_url": null,
    "osm_url": null
  },
  {
    "name": "AUSTIN COUNTRY INC",
    "type": "landfill",
    "address": "9500 E HIGHWAY 290 AUSTIN TX 78724",
    "lat": 30.33,
    "lng": -97.46,
    "website": null,
    "facility_id": "f_6cf9cb5fb62a",
    "source": "tceq",
    "source_url": null,
    "osm_url": null
  },
  {
    "name": "Austin Wood Recycling",
    "type": "recycling",
    "address": "9201 FM 812 Austin TX 78719",
    "lat": 30.1555498,
    "lng": -97.6873274,
    "website": "https://www.austinwoodrecycling.com/",
    "facility_id": "f_9cc791b1dea8",
    "source": "tceq",
    "source_url": null,
    "osm_url": null
  },
  {
    "name": "Travis County Landfill",
    "type": "landfill",
    "address": "9600 FM 812 Austin TX 78719",
    "lat": 30.1622743,
    "lng": -97.6710656,
    "website": "https://www.wasteconnections.com/travis-county-landfill/",
    "facility_id": "f_a326bb50b580",
    "source": "tceq",
    "source_url": null,
    "osm_url": "https://www.openstreetmap.org/way/1185613730"
  },
  {
    "name": "AUSTIN COUNTRY INC",
    "type": "landfill",
    "address": "9500 E HIGHWAY 290 AUSTIN TX 78724",
    "lat": 30.33,
    "lng": -97.46,
    "website": null,
    "facility_id": "f_ab6990253817",
    "source": "tceq",
    "source_url": null,
    "osm_url": null
  },
  {
    "name": "Travis County Landfill",
    "type": "landfill",
    "address": "9600 FM 812 Austin TX 78719",
    "lat": 30.1622743,
    "lng": -97.6710656,
    "website": "https://www.wasteconnections.com/travis-county-landfill/",
    "facility_id": "f_c58423d1fb2f",
    "source": "tceq",
    "source_url": null,
    "osm_url": null
  },
  {
    "name": "J-V DIRT + LOAM",
    "type": "landfill",
    "address": "3600 N FM 973 AUSTIN TX 78725",
    "lat": 30.27,
    "lng": -97.73,
    "website": null,
    "facility_id": "f_d22e976e8d49",
    "source": "tceq",
    "source_url": null,
    "osm_url": null
  },
  {
    "name": "TRAVIS COUNTY LANDFILL",
    "type": "landfill",
    "address": "9600 FM 812 AUSTIN TX 78719",
    "lat": 30.17,
    "lng": -97.68,
    "website": null,
    "facility_id": "f_da5e1310d4c6",
    "source": "tceq",
    "source_url": null,
    "osm_url": null
  }
]