{
  "city": "Houston",
  "state": "TX",
  "last_updated": "2026-01-29",
  "facilities": [
    {
      "name": "North Neighborhood Depository & Recycling Center",
      "type": "Neighborhood Depository & Recycling Center",
      "address": "9003 N Main St, Houston, TX 77022",
      "phone": "3-1-1",
      "hours": "Tuesday–Saturday: 8 a.m.–5 p.m.",
      "fees": "Free for residents (up to 4 visits/month)",
      "accepted_materials": [
        "Household trash",
        "Yard waste",
        "Bulk items",
        "Recyclables (plastics, paper, glass, metals)",
        "Up to 5 tires/month (no rims)",
        "Used motor oil",
        "Tree waste",
        "Cardboard"
      ],
      "not_accepted": [
        "Commercial waste",
        "Hazardous materials (except at designated centers)",
        "Rubber materials (tubes, hoses, gloves)",
        "Extension cords",
        "Wiring/string lights"
      ],
      "rules": "Houston residents only; proof required (TX ID + utility bill/lease/tax bill/student ID); arrive 30 min before closing; no commercial vehicles.",
      "source": "https://www.houstontx.gov/solidwaste/dropoff.html",
      "verified_date": "2026-01-29",
      "facility_id": "f_manual_ccdf62586194"
    },
    {
      "name": "Northwest Neighborhood Depository & Recycling Center",
      "type": "Neighborhood Depository & Recycling Center",
      "address": "14400 Sommermeyer St, Houston, TX 77041",
      "phone": "3-1-1",
      "hours": "Tuesday–Saturday: 8 a.m.–5 p.m.",
      "fees": "Free for residents",
      "accepted_materials": [
        "Household trash",
        "Yard waste",
        "Bulk items",
        "Recyclables",
        "Tires (limited)",
        "Used oil",
        "Tree waste"
      ],
      "not_accepted": [
        "Commercial",
        "Hazardous",
        "Rubber items",
        "Cords/lights"
      ],
      "rules": "Residents only; proof required; arrive early.",
      "source": "https://www.houstontx.gov/solidwaste/dropoff.html",
      "verified_date": "2026-01-29",
      "facility_id": "f_manual_ca074fd9f44d"
    },
    {
      "name": "Northeast Neighborhood Depository & Recycling Center",
      "type": "Neighborhood Depository & Recycling Center",
      "address": "5565 Kirkpatrick Blvd, Houston, TX 77028",
      "phone": "3-1-1",
      "hours": "Tuesday–Saturday: 8 a.m.–5 p.m.",
      "fees": "Free for residents",
      "accepted_materials": [
        "Trash",
        "Yard waste",
        "Bulk",
        "Recyclables",
        "Tires"
      ],
      "not_accepted": [
        "Commercial",
        "Hazardous"
      ],
      "rules": "Proof of residency",
      "source": "https://www.houstontx.gov/solidwaste/dropoff.html",
      "verified_date": "2026-01-29",
      "facility_id": "f_manual_181fb1282858"
    },
    {
      "name": "Southeast Neighborhood Depository & Recycling Center",
      "type": "Neighborhood Depository & Recycling Center",
      "address": "2240 Central St, Houston, TX 77017",
      "phone": "3-1-1",
      "hours": "Tuesday–Saturday: 8 a.m.–5 p.m.",
      "fees": "Free",
      "accepted_materials": [
        "Trash",
        "Yard waste",
        "Bulk",
        "Recyclables",
        "Tires"
      ],
      "not_accepted": [
        "Commercial",
        "Hazardous"
      ],
      "rules": "Residents only",
      "source": "https://www.houstontx.gov/solidwaste/dropoff.html",
      "verified_date": "2026-01-29",
      "facility_id": "f_manual_8e273290e1cd"
    },
    {
      "name": "South Neighborhood Depository & Recycling Center",
      "type": "Neighborhood Depository & Recycling Center",
      "address": "5100 Sunbeam St, Houston, TX 77033",
      "phone": "3-1-1",
      "hours": "Tuesday–Saturday: 8 a.m.–5 p.m.",
      "fees": "Free",
      "accepted_materials": [
        "Trash",
        "Yard waste",
        "Bulk",
        "Recyclables",
        "Tires"
      ],
      "not_accepted": [
        "Commercial",
        "Hazardous"
      ],
      "rules": "Proof required",
      "source": "https://www.houstontx.gov/solidwaste/dropoff.html",
      "verified_date": "2026-01-29",
      "facility_id": "f_manual_243ef4ba5b8c"
    },
    {
      "name": "Southwest Neighborhood Depository & Recycling Center",
      "type": "Neighborhood Depository & Recycling Center",
      "address": "10785 SW Freeway, Houston, TX 77074",
      "phone": "3-1-1",
      "hours": "Tuesday–Saturday: 8 a.m.–5 p.m.",
      "fees": "Free",
      "accepted_materials": [
        "Trash",
        "Yard waste",
        "Bulk",
        "Recyclables",
        "Tires"
      ],
      "not_accepted": [
        "Commercial",
        "Hazardous"
      ],
      "rules": "Residents only",
      "source": "https://www.houstontx.gov/solidwaste/dropoff.html",
      "verified_date": "2026-01-29",
      "facility_id": "f_manual_f2e83795d0d0"
    },
    {
      "name": "Westpark Recycling Center",
      "type": "Recycling Center",
      "address": "5900 Westpark Dr, Houston, TX 77057",
      "phone": "3-1-1",
      "hours": "Tuesday–Saturday: 8 a.m.–5 p.m.",
      "fees": "Free",
      "accepted_materials": [
        "Aluminum/tin/aerosol cans",
        "All plastics (#1-7)",
        "Newspapers/magazines",
        "Glass bottles/jars",
        "Used motor oil",
        "Tree waste",
        "Cardboard",
        "Up to 5 tires/month (no rims)"
      ],
      "not_accepted": [
        "Hazardous materials (chemicals, oil, fuel)",
        "Bulk items/furniture (sheds, pools)",
        "Rubber materials (tubes, hoses, gloves)",
        "Extension cords",
        "Wiring/string lights",
        "Household garbage"
      ],
      "rules": "Residents only; 4x/month limit; proof: TX ID + utility/lease/tax/student ID; arrive 30 min early; no commercial vehicles.",
      "source": "https://www.houstontx.gov/solidwaste/recycling_centers.html",
      "verified_date": "2026-01-29",
      "facility_id": "f_manual_b8611d1dc0a2"
    },
    {
      "name": "Clear Lake/Ellington Airport Recycling Center",
      "type": "Recycling Center",
      "address": "246 Loop Rd, Houston, TX 77034",
      "phone": "3-1-1",
      "hours": "Open 7 days: 8 a.m.–8 p.m.",
      "fees": "Free",
      "accepted_materials": [
        "Aluminum/tin/aerosol",
        "All plastics",
        "Newspapers/magazines",
        "Glass",
        "Used oil",
        "Tree waste",
        "Cardboard",
        "Up to 5 tires/month"
      ],
      "not_accepted": [
        "Hazardous",
        "Bulk/furniture",
        "Rubber",
        "Cords/lights",
        "Garbage"
      ],
      "rules": "Residents only; proof required; 4x/month.",
      "source": "https://www.houstontx.gov/solidwaste/recycling_centers.html",
      "verified_date": "2026-01-29",
      "facility_id": "f_manual_2b7ee1dc091c"
    },
    {
      "name": "Kingwood Recycling Center",
      "type": "Recycling Center",
      "address": "3210 W Lake Houston Pkwy, Houston, TX 77339",
      "phone": "3-1-1",
      "hours": "Saturday–Sunday: 8 a.m.–6 p.m.",
      "fees": "Free",
      "accepted_materials": [
        "Aluminum/tin",
        "Plastics",
        "Paper/magazines",
        "Glass",
        "Oil",
        "Tree waste",
        "Cardboard",
        "Tires (limited)"
      ],
      "not_accepted": [
        "Hazardous",
        "Bulk",
        "Rubber",
        "Cords",
        "Garbage"
      ],
      "rules": "Residents only; proof required.",
      "source": "https://www.houstontx.gov/solidwaste/recycling_centers.html",
      "verified_date": "2026-01-29",
      "facility_id": "f_manual_920e903eb797"
    },
    {
      "name": "Reuse Warehouse",
      "type": "Reuse Warehouse",
      "address": "9003 N Main St, Houston, TX 77022",
      "phone": "3-1-1",
      "hours": "Tuesday–Saturday: 8 a.m.–5 p.m.",
      "fees": "Free/donation-based",
      "accepted_materials": [
        "Working appliances",
        "Furniture",
        "Building materials",
        "Household goods",
        "Aluminum/tin",
        "Plastics",
        "Paper",
        "Glass",
        "Oil",
        "Tree waste",
        "Cardboard",
        "Tires"
      ],
      "not_accepted": [
        "Broken items",
        "Hazardous",
        "Garbage"
      ],
      "rules": "For reuse/donation; check schedule; residents only.",
      "source": "https://www.houstontx.gov/solidwaste/recycling_centers.html",
      "verified_date": "2026-01-29",
      "facility_id": "f_manual_9f89d3cb2b41"
    },
    {
      "name": "Environmental Service Center - North",
      "type": "Hazardous Waste Facility",
      "address": "5614 Neches St, Building C, Houston, TX 77026",
      "phone": "832-393-7766",
      "hours": "Tuesdays/Wednesdays 9 a.m.–3 p.m.; 2nd/4th Saturdays 9 a.m.–2 p.m. (by appointment)",
      "fees": "Free for Harris County residents (outside Houston city services)",
      "accepted_materials": [
        "Aerosols (no Freon/mace)",
        "Automotive products (gas, oil)",
        "Batteries (up to car size)",
        "Household cleaners",
        "Chemicals (pool, fertilizers, pesticides)",
        "Propane cylinders",
        "Tires (up to 5/visit)",
        "Thermometers/mercury items"
      ],
      "not_accepted": [
        "Commercial hazardous",
        "Medical waste"
      ],
      "rules": "Harris County residents only (no City of Houston services/taxes); appointment required; enter at Hahl Rd (290/Gessner).",
      "source": "https://oce.harriscountytx.gov/Services/Household-Hazardous-Waste",
      "verified_date": "2026-01-29",
      "facility_id": "f_manual_8ea5daf19171"
    },
    {
      "name": "Environmental Service Center - South",
      "type": "Hazardous Waste Facility",
      "address": "11500 S Post Oak Rd, Houston, TX 77035",
      "phone": "832-393-7766",
      "hours": "Call for schedule (similar to North)",
      "fees": "Free for residents",
      "accepted_materials": [
        "Paint",
        "Cleaners",
        "Pesticides",
        "Batteries",
        "Chemicals"
      ],
      "not_accepted": [
        "Commercial"
      ],
      "rules": "Residents only; appointment may be required.",
      "source": "https://www.houstontx.gov/solidwaste/disposal.html",
      "verified_date": "2026-01-29",
      "facility_id": "f_manual_5764f3beec35"
    },
    {
      "name": "Harris County Household Hazardous Waste Facility",
      "type": "Hazardous Waste Facility",
      "address": "6900 Hahl Rd, Houston, TX 77040",
      "phone": "(713) 290-3000 or similar (check site)",
      "hours": "Tues/Wed 9 a.m.–3 p.m.; 2nd/4th Sat 9 a.m.–2 p.m. (appointments)",
      "fees": "Free for Harris County residents",
      "accepted_materials": [
        "Aerosols",
        "Auto products",
        "Batteries",
        "Cleaners",
        "Chemicals",
        "Propane",
        "Tires (5 max)",
        "Mercury items"
      ],
      "not_accepted": [
        "Commercial",
        "Explosives"
      ],
      "rules": "Outside Houston city jurisdiction; no city taxes/services.",
      "source": "https://oce.harriscountytx.gov/Services/Household-Hazardous-Waste",
      "verified_date": "2026-01-29",
      "facility_id": "f_manual_b201a7ca6cf8"
    },
    {
      "name": "Atascocita Landfill",
      "type": "Type I Landfill",
      "address": "3623 Wilson Rd, Humble, TX 77396 (Houston area)",
      "phone": "WM service: 800-772-8653",
      "hours": "Varies; call",
      "fees": "By weight/ton (fee charge)",
      "accepted_materials": [
        "Garbage",
        "Heavy trash",
        "Construction debris"
      ],
      "not_accepted": [
        "Certain hazardous"
      ],
      "rules": "Commercial/residential; fees apply; open to public.",
      "source": "https://www.houstontx.gov/solidwaste/disposal.html",
      "verified_date": "2026-01-29",
      "facility_id": "f_manual_e923e0f35697"
    },
    {
      "name": "BFI McCarty Landfill",
      "type": "Type I Landfill",
      "address": "5757 Oates Rd, Houston, TX 77078",
      "phone": "Republic Services: call for info",
      "hours": "Varies",
      "fees": "Fee charge",
      "accepted_materials": [
        "Garbage",
        "Heavy trash"
      ],
      "not_accepted": [
        "Hazardous"
      ],
      "rules": "Public access with fees",
      "source": "https://www.houstontx.gov/solidwaste/disposal.html",
      "verified_date": "2026-01-29",
      "facility_id": "f_manual_a89ff3d79246"
    },
    {
      "name": "BFI Whispering Pines Landfill",
      "type": "Type I Landfill",
      "address": "8100 Little York Rd, Houston, TX 77016",
      "phone": "Call for info",
      "hours": "Varies",
      "fees": "Fee charge",
      "accepted_materials": [
        "Garbage",
        "Heavy trash"
      ],
      "not_accepted": [
        "Hazardous"
      ],
      "rules": "Fees by load",
      "source": "https://www.houstontx.gov/solidwaste/disposal.html",
      "verified_date": "2026-01-29",
      "facility_id": "f_manual_3bea062a6522"
    },
    {
      "name": "BFI Blue Ridge Landfill",
      "type": "Type I Landfill",
      "address": "2200 FM 521, Fresno, TX 77545 (Houston area)",
      "phone": "Call",
      "hours": "Varies",
      "fees": "Fee charge",
      "accepted_materials": [
        "Garbage",
        "Heavy trash"
      ],
      "not_accepted": [
        "Hazardous"
      ],
      "rules": "Public with fees",
      "source": "https://www.houstontx.gov/solidwaste/disposal.html",
      "verified_date": "2026-01-29",
      "facility_id": "f_manual_422e6d19df67"
    },
    {
      "name": "Coastal Plains Landfill (Alvin)",
      "type": "Type I Landfill",
      "address": "21000 East Highway 6, Alvin, TX 77511",
      "phone": "Call",
      "hours": "Varies",
      "fees": "Fee charge",
      "accepted_materials": [
        "Garbage",
        "Heavy trash"
      ],
      "not_accepted": [
        "Hazardous"
      ],
      "rules": "Fees apply",
      "source": "https://www.houstontx.gov/solidwaste/disposal.html",
      "verified_date": "2026-01-29",
      "facility_id": "f_manual_6f039ab2f19a"
    },
    {
      "name": "2020 Atascocita Landfill",
      "type": "Type I Landfill",
      "address": "N/A (check for update)",
      "phone": "Call",
      "hours": "Varies",
      "fees": "Fee charge",
      "accepted_materials": [
        "Garbage",
        "Heavy trash"
      ],
      "not_accepted": [
        "Hazardous"
      ],
      "rules": "Public fees",
      "source": "https://www.houstontx.gov/solidwaste/disposal.html",
      "verified_date": "2026-01-29",
      "facility_id": "f_manual_2ce4694e1b9e"
    },
    {
      "name": "13400 Sanderford Rd Landfill",
      "type": "Type IV Landfill",
      "address": "13400 Sanderford Rd, Houston, TX",
      "phone": "Call",
      "hours": "Varies",
      "fees": "Fee charge (heavy trash only)",
      "accepted_materials": [
        "Heavy trash"
      ],
      "not_accepted": [
        "Garbage",
        "Hazardous"
      ],
      "rules": "Heavy trash only",
      "source": "https://www.houstontx.gov/solidwaste/disposal.html",
      "verified_date": "2026-01-29",
      "facility_id": "f_manual_77776f787254"
    },
    {
      "name": "Casco Hauling Landfill",
      "type": "Type IV Landfill",
      "address": "1306 East Anderson Rd, Houston, TX",
      "phone": "Call",
      "hours": "Varies",
      "fees": "Fee charge",
      "accepted_materials": [
        "Heavy trash"
      ],
      "not_accepted": [
        "Garbage"
      ],
      "rules": "Heavy trash only",
      "source": "https://www.houstontx.gov/solidwaste/disposal.html",
      "verified_date": "2026-01-29",
      "facility_id": "f_manual_9404aa47ed81"
    },
    {
      "name": "Cougar Disposal Landfill",
      "type": "Type IV Landfill",
      "address": "8601 E Mount Houston Rd, Houston, TX",
      "phone": "Call",
      "hours": "Varies",
      "fees": "Fee charge",
      "accepted_materials": [
        "Heavy trash"
      ],
      "not_accepted": [
        "Garbage"
      ],
      "rules": "Heavy trash only",
      "source": "https://www.houstontx.gov/solidwaste/disposal.html",
      "verified_date": "2026-01-29",
      "facility_id": "f_manual_f106abfabc3a"
    },
    {
      "name": "Dixie Farm Landfill",
      "type": "Type IV Landfill",
      "address": "4649 Dixie Farm Rd, Pearland, TX 77581 (Houston area)",
      "phone": "Call",
      "hours": "Varies",
      "fees": "Fee charge",
      "accepted_materials": [
        "Heavy trash"
      ],
      "not_accepted": [
        "Garbage"
      ],
      "rules": "Heavy trash only",
      "source": "https://www.houstontx.gov/solidwaste/disposal.html",
      "verified_date": "2026-01-29",
      "facility_id": "f_manual_8286d6be50e1"
    },
    {
      "name": "Fort Bend Landfill",
      "type": "Type IV Landfill",
      "address": "16007 Boss Gaston Rd, Sugar Land, TX 77498 (Houston area)",
      "phone": "Call",
      "hours": "Varies",
      "fees": "Fee charge",
      "accepted_materials": [
        "Heavy trash"
      ],
      "not_accepted": [
        "Garbage"
      ],
      "rules": "Heavy trash only",
      "source": "https://www.houstontx.gov/solidwaste/disposal.html",
      "verified_date": "2026-01-29",
      "facility_id": "f_manual_b2de4af8355c"
    },
    {
      "name": "Green House Road Landfill",
      "type": "Type IV Landfill",
      "address": "3510 Greenhouse Rd, Houston, TX",
      "phone": "Call",
      "hours": "Varies",
      "fees": "Fee charge",
      "accepted_materials": [
        "Heavy trash"
      ],
      "not_accepted": [
        "Garbage"
      ],
      "rules": "Heavy trash only",
      "source": "https://www.houstontx.gov/solidwaste/disposal.html",
      "verified_date": "2026-01-29",
      "facility_id": "f_manual_19ceaf00ecfb"
    },
    {
      "name": "Greenshadow Landfill (Pasadena)",
      "type": "Type IV Landfill",
      "address": "710 Jana Ln, Pasadena, TX 77506",
      "phone": "Call",
      "hours": "Varies",
      "fees": "Fee charge",
      "accepted_materials": [
        "Heavy trash"
      ],
      "not_accepted": [
        "Garbage"
      ],
      "rules": "Heavy trash only",
      "source": "https://www.houstontx.gov/solidwaste/disposal.html",
      "verified_date": "2026-01-29",
      "facility_id": "f_manual_c72cf05570a4"
    },
    {
      "name": "Hawthorne Park Landfill",
      "type": "Type IV Landfill",
      "address": "10332 Tanner Rd, Houston, TX 77041",
      "phone": "Call",
      "hours": "Varies",
      "fees": "Fee charge",
      "accepted_materials": [
        "Heavy trash"
      ],
      "not_accepted": [
        "Garbage"
      ],
      "rules": "Heavy trash only",
      "source": "https://www.houstontx.gov/solidwaste/disposal.html",
      "verified_date": "2026-01-29",
      "facility_id": "f_manual_7f576ed588f7"
    },
    {
      "name": "Waste Management Landfill",
      "type": "Type IV Landfill",
      "address": "8205 Fairbanks N Houston Rd, Houston, TX 77064",
      "phone": "713-849-2902",
      "hours": "Varies",
      "fees": "Fee charge",
      "accepted_materials": [
        "Heavy trash"
      ],
      "not_accepted": [
        "Garbage"
      ],
      "rules": "Heavy trash only",
      "source": "https://www.houstontx.gov/solidwaste/disposal.html",
      "verified_date": "2026-01-29",
      "facility_id": "f_manual_0c1cb31b5fc1"
    },
    {
      "name": "Hardy Road Transfer Station",
      "type": "Transfer Station",
      "address": "18784 Hardy Rd, Houston, TX 77373",
      "phone": "281-443-1456",
      "hours": "Monday–Saturday: 6 a.m.–5 p.m. (call to confirm)",
      "fees": "By load/weight (commercial/residential)",
      "accepted_materials": [
        "Non-hazardous solid waste",
        "Recycling",
        "General trash",
        "Construction debris"
      ],
      "not_accepted": [
        "Hazardous waste"
      ],
      "rules": "Public access; fees apply; no hazardous.",
      "source": "https://www.wasteconnections.com/hardy-road-transfer-station",
      "verified_date": "2026-01-29",
      "facility_id": "f_manual_4cd79d62f9f3"
    },
    {
      "name": "1200 Brittmoore Recycling Center",
      "type": "Recycling Center",
      "address": "1200 Brittmoore Rd, Houston, TX 77043",
      "phone": "3-1-1",
      "hours": "Varies (call for materials)",
      "fees": "Free for residents",
      "accepted_materials": [
        "Call for info"
      ],
      "not_accepted": [
        "Unknown"
      ],
      "rules": "Non-city owned; residents only",
      "source": "https://www.houstontx.gov/solidwaste/disposal.html",
      "verified_date": "2026-01-29",
      "facility_id": "f_manual_611b16ce8c2d"
    },
    {
      "name": "The Woodlands Recycling Center",
      "type": "Recycling Center",
      "address": "The Woodlands area (check township site for exact)",
      "phone": "Call Waste Management",
      "hours": "Varies",
      "fees": "Free for township residents",
      "accepted_materials": [
        "Standard recyclables"
      ],
      "not_accepted": [
        "Hazardous"
      ],
      "rules": "Woodlands Township residents",
      "source": "https://www.thewoodlandstownship-tx.gov/Departments/Environmental-Services/Trash-Recycling/Facilities",
      "verified_date": "2026-01-29",
      "facility_id": "f_manual_8272db6f0f77"
    },
    {
      "name": "Hockley Public Dumpster (Harris County Precinct 4)",
      "type": "Public Dumpster",
      "address": "28511 Old Washington Rd, Hockley, TX 77447",
      "phone": "Call Precinct 4",
      "hours": "Monday–Saturday: 7 a.m.–3 p.m.",
      "fees": "Free for large items/misc junk",
      "accepted_materials": [
        "Large items",
        "Miscellaneous junk"
      ],
      "not_accepted": [
        "Hazardous",
        "Commercial?"
      ],
      "rules": "Public convenience; hassle-free disposal.",
      "source": "https://cp4.harriscountytx.gov/Public-Dumpsters",
      "verified_date": "2026-01-29",
      "facility_id": "f_manual_158aa20288a2"
    },
    {
      "name": "Tomball Public Dumpster (Harris County Precinct 4)",
      "type": "Public Dumpster",
      "address": "Service Center Rd, Tomball, TX 77377",
      "phone": "Call Precinct 4",
      "hours": "Monday–Saturday: 7 a.m.–3 p.m.",
      "fees": "Free",
      "accepted_materials": [
        "Large items",
        "Junk"
      ],
      "not_accepted": [
        "Hazardous"
      ],
      "rules": "Public use",
      "source": "https://cp4.harriscountytx.gov/Public-Dumpsters",
      "verified_date": "2026-01-29",
      "facility_id": "f_manual_9a73248e106a"
    }
  ]
}